{
   "type": "FeatureCollection",
   "features": [
  {
    "type": "Feature",
    "geometry": {
       "type": "Point",
       "coordinates":  [ -122.167359,37.429434 ]
    },
    "properties": {
    "UNITID":243744,
    "Name":"Stanford University",
    "City":"Stanford",
    "State":"CA",
    "Control":"Private not-for-profit",
    "highestDegree":"Doctor's degree - research/scholarship and professional practice",
    "SAT_AVG":1476,
    "ADM_RATE":0.0481,
    "TUITION_IN":47940,
    "TUITION_OUT":47940
    }
  },
  {
    "type": "Feature",
    "geometry": {
       "type": "Point",
       "coordinates":  [ -71.118313,42.374471 ]
    },
    "properties": {
    "UNITID":166027,
    "Name":"Harvard University",
    "City":"Cambridge",
    "State":"MA",
    "Control":"Private not-for-profit",
    "highestDegree":"Doctor's degree - research/scholarship and professional practice",
    "SAT_AVG":1506,
    "ADM_RATE":0.054,
    "TUITION_IN":47074,
    "TUITION_OUT":47074
    }
  },
  {
    "type": "Feature",
    "geometry": {
       "type": "Point",
       "coordinates":  [ -72.926688,41.311158 ]
    },
    "properties": {
    "UNITID":130794,
    "Name":"Yale University",
    "City":"New Haven",
    "State":"CT",
    "Control":"Private not-for-profit",
    "highestDegree":"Doctor's degree - research/scholarship and professional practice",
    "SAT_AVG":1502,
    "ADM_RATE":0.0632,
    "TUITION_IN":49480,
    "TUITION_OUT":49480
    }
  },
  {
    "type": "Feature",
    "geometry": {
       "type": "Point",
       "coordinates":  [ -74.659365,40.348732 ]
    },
    "properties": {
    "UNITID":186131,
    "Name":"Princeton University",
    "City":"Princeton",
    "State":"NJ",
    "Control":"Private not-for-profit",
    "highestDegree":"Doctor's degree - research/scholarship",
    "SAT_AVG":1493,
    "ADM_RATE":0.0652,
    "TUITION_IN":45320,
    "TUITION_OUT":45320
    }
  },
  {
    "type": "Feature",
    "geometry": {
       "type": "Point",
       "coordinates":  [ -73.961885,40.808286 ]
    },
    "properties": {
    "UNITID":190150,
    "Name":"Columbia University in the City of New York",
    "City":"New York",
    "State":"NY",
    "Control":"Private not-for-profit",
    "highestDegree":"Doctor's degree - research/scholarship and professional practice",
    "SAT_AVG":1496,
    "ADM_RATE":0.0683,
    "TUITION_IN":55056,
    "TUITION_OUT":55056
    }
  },
  {
    "type": "Feature",
    "geometry": {
       "type": "Point",
       "coordinates":  [ -87.599539,41.787994 ]
    },
    "properties": {
    "UNITID":144050,
    "Name":"University of Chicago",
    "City":"Chicago",
    "State":"IL",
    "Control":"Private not-for-profit",
    "highestDegree":"Doctor's degree - research/scholarship and professional practice",
    "SAT_AVG":1508,
    "ADM_RATE":0.0794,
    "TUITION_IN":53649,
    "TUITION_OUT":53649
    }
  },
  {
    "type": "Feature",
    "geometry": {
       "type": "Point",
       "coordinates":  [ -71.092115,42.360095 ]
    },
    "properties": {
    "UNITID":166683,
    "Name":"Massachusetts Institute of Technology",
    "City":"Cambridge",
    "State":"MA",
    "Control":"Private not-for-profit",
    "highestDegree":"Doctor's degree - research/scholarship",
    "SAT_AVG":1519,
    "ADM_RATE":0.0794,
    "TUITION_IN":48452,
    "TUITION_OUT":48452
    }
  },
  {
    "type": "Feature",
    "geometry": {
       "type": "Point",
       "coordinates":  [ -118.125878,34.137349 ]
    },
    "properties": {
    "UNITID":110404,
    "Name":"California Institute of Technology",
    "City":"Pasadena",
    "State":"CA",
    "Control":"Private not-for-profit",
    "highestDegree":"Doctor's degree - research/scholarship",
    "SAT_AVG":1555,
    "ADM_RATE":0.0807,
    "TUITION_IN":47577,
    "TUITION_OUT":47577
    }
  },
  {
    "type": "Feature",
    "geometry": {
       "type": "Point",
       "coordinates":  [ -71.40385,41.82617 ]
    },
    "properties": {
    "UNITID":217156,
    "Name":"Brown University",
    "City":"Providence",
    "State":"RI",
    "Control":"Private not-for-profit",
    "highestDegree":"Doctor's degree - research/scholarship and professional practice",
    "SAT_AVG":1459,
    "ADM_RATE":0.0931,
    "TUITION_IN":51366,
    "TUITION_OUT":51366
    }
  },
  {
    "type": "Feature",
    "geometry": {
       "type": "Point",
       "coordinates":  [ -117.711188,34.102154 ]
    },
    "properties": {
    "UNITID":112260,
    "Name":"Claremont McKenna College",
    "City":"Claremont",
    "State":"CA",
    "Control":"Private not-for-profit",
    "highestDegree":"Master's degree",
    "SAT_AVG":1413,
    "ADM_RATE":0.0944,
    "TUITION_IN":50945,
    "TUITION_OUT":50945
    }
  },
  {
    "type": "Feature",
    "geometry": {
       "type": "Point",
       "coordinates":  [ -117.711944,34.098298 ]
    },
    "properties": {
    "UNITID":121345,
    "Name":"Pomona College",
    "City":"Claremont",
    "State":"CA",
    "Control":"Private not-for-profit",
    "highestDegree":"Bachelor's degree",
    "SAT_AVG":1442,
    "ADM_RATE":0.0944,
    "TUITION_IN":49352,
    "TUITION_OUT":49352
    }
  },
  {
    "type": "Feature",
    "geometry": {
       "type": "Point",
       "coordinates":  [ -75.19391,39.950929 ]
    },
    "properties": {
    "UNITID":215062,
    "Name":"University of Pennsylvania",
    "City":"Philadelphia",
    "State":"PA",
    "Control":"Private not-for-profit",
    "highestDegree":"Doctor's degree - research/scholarship and professional practice",
    "SAT_AVG":1481,
    "ADM_RATE":0.0944,
    "TUITION_IN":51464,
    "TUITION_OUT":51464
    }
  },
  {
    "type": "Feature",
    "geometry": {
       "type": "Point",
       "coordinates":  [ -71.264047,42.292842 ]
    },
    "properties": {
    "UNITID":441982,
    "Name":"Franklin W. Olin College of Engineering",
    "City":"Needham",
    "State":"MA",
    "Control":"Private not-for-profit",
    "highestDegree":"Bachelor's degree",
    "SAT_AVG":1490,
    "ADM_RATE":0.1019,
    "TUITION_IN":49986,
    "TUITION_OUT":49986
    }
  },
  {
    "type": "Feature",
    "geometry": {
       "type": "Point",
       "coordinates":  [ -72.289949,43.704115 ]
    },
    "properties": {
    "UNITID":182670,
    "Name":"Dartmouth College",
    "City":"Hanover",
    "State":"NH",
    "Control":"Private not-for-profit",
    "highestDegree":"Doctor's degree - research/scholarship and professional practice",
    "SAT_AVG":1441,
    "ADM_RATE":0.1059,
    "TUITION_IN":51438,
    "TUITION_OUT":51438
    }
  },
  {
    "type": "Feature",
    "geometry": {
       "type": "Point",
       "coordinates":  [ -87.679858,42.050356 ]
    },
    "properties": {
    "UNITID":147767,
    "Name":"Northwestern University",
    "City":"Evanston",
    "State":"IL",
    "Control":"Private not-for-profit",
    "highestDegree":"Doctor's degree - research/scholarship and professional practice",
    "SAT_AVG":1470,
    "ADM_RATE":0.1066,
    "TUITION_IN":50855,
    "TUITION_OUT":50855
    }
  },
  {
    "type": "Feature",
    "geometry": {
       "type": "Point",
       "coordinates":  [ -86.803369,36.14659 ]
    },
    "properties": {
    "UNITID":221999,
    "Name":"Vanderbilt University",
    "City":"Nashville",
    "State":"TN",
    "Control":"Private not-for-profit",
    "highestDegree":"Doctor's degree - research/scholarship and professional practice",
    "SAT_AVG":1495,
    "ADM_RATE":0.1075,
    "TUITION_IN":45610,
    "TUITION_OUT":45610
    }
  },
  {
    "type": "Feature",
    "geometry": {
       "type": "Point",
       "coordinates":  [ -78.937624,36.001135 ]
    },
    "properties": {
    "UNITID":198419,
    "Name":"Duke University",
    "City":"Durham",
    "State":"NC",
    "Control":"Private not-for-profit",
    "highestDegree":"Doctor's degree - research/scholarship and professional practice",
    "SAT_AVG":1460,
    "ADM_RATE":0.1083,
    "TUITION_IN":51265,
    "TUITION_OUT":51265
    }
  },
  {
    "type": "Feature",
    "geometry": {
       "type": "Point",
       "coordinates":  [ -90.044912,30.026162 ]
    },
    "properties": {
    "UNITID":160630,
    "Name":"Southern University at New Orleans",
    "City":"New Orleans",
    "State":"LA",
    "Control":"Public",
    "highestDegree":"Master's degree",
    "SAT_AVG":850,
    "ADM_RATE":0.1154,
    "TUITION_IN":6421,
    "TUITION_OUT":15322
    }
  },
  {
    "type": "Feature",
    "geometry": {
       "type": "Point",
       "coordinates":  [ -75.354278,39.905159 ]
    },
    "properties": {
    "UNITID":216287,
    "Name":"Swarthmore College",
    "City":"Swarthmore",
    "State":"PA",
    "Control":"Private not-for-profit",
    "highestDegree":"Bachelor's degree",
    "SAT_AVG":1421,
    "ADM_RATE":0.128,
    "TUITION_IN":49104,
    "TUITION_OUT":49104
    }
  },
  {
    "type": "Feature",
    "geometry": {
       "type": "Point",
       "coordinates":  [ -76.621595,39.328977 ]
    },
    "properties": {
    "UNITID":162928,
    "Name":"Johns Hopkins University",
    "City":"Baltimore",
    "State":"MD",
    "Control":"Private not-for-profit",
    "highestDegree":"Doctor's degree - research/scholarship and professional practice",
    "SAT_AVG":1476,
    "ADM_RATE":0.1284,
    "TUITION_IN":50410,
    "TUITION_OUT":50410
    }
  },
  {
    "type": "Feature",
    "geometry": {
       "type": "Point",
       "coordinates":  [ -117.709837,34.106515 ]
    },
    "properties": {
    "UNITID":115409,
    "Name":"Harvey Mudd College",
    "City":"Claremont",
    "State":"CA",
    "Control":"Private not-for-profit",
    "highestDegree":"Bachelor's degree",
    "SAT_AVG":1496,
    "ADM_RATE":0.1287,
    "TUITION_IN":52666,
    "TUITION_OUT":52666
    }
  },
  {
    "type": "Feature",
    "geometry": {
       "type": "Point",
       "coordinates":  [ -72.518493,42.372459 ]
    },
    "properties": {
    "UNITID":164465,
    "Name":"Amherst College",
    "City":"Amherst",
    "State":"MA",
    "Control":"Private not-for-profit",
    "highestDegree":"Bachelor's degree",
    "SAT_AVG":1451,
    "ADM_RATE":0.1369,
    "TUITION_IN":52476,
    "TUITION_OUT":52476
    }
  },
  {
    "type": "Feature",
    "geometry": {
       "type": "Point",
       "coordinates":  [ -76.483084,42.4472 ]
    },
    "properties": {
    "UNITID":190415,
    "Name":"Cornell University",
    "City":"Ithaca",
    "State":"NY",
    "Control":"Private not-for-profit",
    "highestDegree":"Doctor's degree - research/scholarship and professional practice",
    "SAT_AVG":1436,
    "ADM_RATE":0.1409,
    "TUITION_IN":50953,
    "TUITION_OUT":50953
    }
  },
  {
    "type": "Feature",
    "geometry": {
       "type": "Point",
       "coordinates":  [ -93.238174,36.616019 ]
    },
    "properties": {
    "UNITID":178697,
    "Name":"College of the Ozarks",
    "City":"Point Lookout",
    "State":"MO",
    "Control":"Private not-for-profit",
    "highestDegree":"Bachelor's degree",
    "SAT_AVG":1071,
    "ADM_RATE":0.1422,
    "TUITION_IN":18930,
    "TUITION_OUT":18930
    }
  },
  {
    "type": "Feature",
    "geometry": {
       "type": "Point",
       "coordinates":  [ -71.120316,42.408465 ]
    },
    "properties": {
    "UNITID":168148,
    "Name":"Tufts University",
    "City":"Medford",
    "State":"MA",
    "Control":"Private not-for-profit",
    "highestDegree":"Doctor's degree - research/scholarship and professional practice",
    "SAT_AVG":1445,
    "ADM_RATE":0.1429,
    "TUITION_IN":52430,
    "TUITION_OUT":52430
    }
  },
  {
    "type": "Feature",
    "geometry": {
       "type": "Point",
       "coordinates":  [ -95.402035,29.717897 ]
    },
    "properties": {
    "UNITID":227757,
    "Name":"Rice University",
    "City":"Houston",
    "State":"TX",
    "Control":"Private not-for-profit",
    "highestDegree":"Doctor's degree - research/scholarship",
    "SAT_AVG":1490,
    "ADM_RATE":0.1527,
    "TUITION_IN":43918,
    "TUITION_OUT":43918
    }
  },
  {
    "type": "Feature",
    "geometry": {
       "type": "Point",
       "coordinates":  [ -73.176068,44.009117 ]
    },
    "properties": {
    "UNITID":230959,
    "Name":"Middlebury College",
    "City":"Middlebury",
    "State":"VT",
    "Control":"Private not-for-profit",
    "highestDegree":"Doctor's degree - research/scholarship",
    "SAT_AVG":1394,
    "ADM_RATE":0.1614,
    "TUITION_IN":50063,
    "TUITION_OUT":50063
    }
  },
  {
    "type": "Feature",
    "geometry": {
       "type": "Point",
       "coordinates":  [ -94.901503,47.425836 ]
    },
    "properties": {
    "UNITID":174525,
    "Name":"Oak Hills Christian College",
    "City":"Bemidji",
    "State":"MN",
    "Control":"Private not-for-profit",
    "highestDegree":"Bachelor's degree",
    "SAT_AVG":874,
    "ADM_RATE":0.1636,
    "TUITION_IN":16980,
    "TUITION_OUT":16980
    }
  },
  {
    "type": "Feature",
    "geometry": {
       "type": "Point",
       "coordinates":  [ -90.310604,38.647929 ]
    },
    "properties": {
    "UNITID":179867,
    "Name":"Washington University in St Louis",
    "City":"Saint Louis",
    "State":"MO",
    "Control":"Private not-for-profit",
    "highestDegree":"Doctor's degree - research/scholarship and professional practice",
    "SAT_AVG":1472,
    "ADM_RATE":0.1653,
    "TUITION_IN":49770,
    "TUITION_OUT":49770
    }
  },
  {
    "type": "Feature",
    "geometry": {
       "type": "Point",
       "coordinates":  [ -118.284169,34.021281 ]
    },
    "properties": {
    "UNITID":123961,
    "Name":"University of Southern California",
    "City":"Los Angeles",
    "State":"CA",
    "Control":"Private not-for-profit",
    "highestDegree":"Doctor's degree - research/scholarship and professional practice",
    "SAT_AVG":1395,
    "ADM_RATE":0.1662,
    "TUITION_IN":52283,
    "TUITION_OUT":52283
    }
  },
  {
    "type": "Feature",
    "geometry": {
       "type": "Point",
       "coordinates":  [ -73.963346,40.810098 ]
    },
    "properties": {
    "UNITID":189097,
    "Name":"Barnard College",
    "City":"New York",
    "State":"NY",
    "Control":"Private not-for-profit",
    "highestDegree":"Bachelor's degree",
    "SAT_AVG":1375,
    "ADM_RATE":0.1674,
    "TUITION_IN":50394,
    "TUITION_OUT":50394
    }
  },
  {
    "type": "Feature",
    "geometry": {
       "type": "Point",
       "coordinates":  [ -77.073463,38.908809 ]
    },
    "properties": {
    "UNITID":131496,
    "Name":"Georgetown University",
    "City":"Washington",
    "State":"DC",
    "Control":"Private not-for-profit",
    "highestDegree":"Doctor's degree - research/scholarship and professional practice",
    "SAT_AVG":1422,
    "ADM_RATE":0.1685,
    "TUITION_IN":50547,
    "TUITION_OUT":50547
    }
  },
  {
    "type": "Feature",
    "geometry": {
       "type": "Point",
       "coordinates":  [ -122.260463,37.871918 ]
    },
    "properties": {
    "UNITID":110635,
    "Name":"University of California-Berkeley",
    "City":"Berkeley",
    "State":"CA",
    "Control":"Public",
    "highestDegree":"Doctor's degree - research/scholarship and professional practice",
    "SAT_AVG":1422,
    "ADM_RATE":0.1693,
    "TUITION_IN":13509,
    "TUITION_OUT":40191
    }
  },
  {
    "type": "Feature",
    "geometry": {
       "type": "Point",
       "coordinates":  [ -73.203132,42.712725 ]
    },
    "properties": {
    "UNITID":168342,
    "Name":"Williams College",
    "City":"Williamstown",
    "State":"MA",
    "Control":"Private not-for-profit",
    "highestDegree":"Master's degree",
    "SAT_AVG":1439,
    "ADM_RATE":0.1761,
    "TUITION_IN":51790,
    "TUITION_OUT":51790
    }
  },
  {
    "type": "Feature",
    "geometry": {
       "type": "Point",
       "coordinates":  [ -118.443901,34.068892 ]
    },
    "properties": {
    "UNITID":110662,
    "Name":"University of California-Los Angeles",
    "City":"Los Angeles",
    "State":"CA",
    "Control":"Public",
    "highestDegree":"Doctor's degree - research/scholarship and professional practice",
    "SAT_AVG":1334,
    "ADM_RATE":0.1799,
    "TUITION_IN":12920,
    "TUITION_OUT":39602
    }
  },
  {
    "type": "Feature",
    "geometry": {
       "type": "Point",
       "coordinates":  [ -69.66337,44.564211 ]
    },
    "properties": {
    "UNITID":161086,
    "Name":"Colby College",
    "City":"Waterville",
    "State":"ME",
    "Control":"Private not-for-profit",
    "highestDegree":"Bachelor's degree",
    "SAT_AVG":1383,
    "ADM_RATE":0.1871,
    "TUITION_IN":50960,
    "TUITION_OUT":50960
    }
  },
  {
    "type": "Feature",
    "geometry": {
       "type": "Point",
       "coordinates":  [ -86.238959,41.703058 ]
    },
    "properties": {
    "UNITID":152080,
    "Name":"University of Notre Dame",
    "City":"Notre Dame",
    "State":"IN",
    "Control":"Private not-for-profit",
    "highestDegree":"Doctor's degree - research/scholarship and professional practice",
    "SAT_AVG":1474,
    "ADM_RATE":0.1873,
    "TUITION_IN":49685,
    "TUITION_OUT":49685
    }
  },
  {
    "type": "Feature",
    "geometry": {
       "type": "Point",
       "coordinates":  [ -80.843979,35.499767 ]
    },
    "properties": {
    "UNITID":198385,
    "Name":"Davidson College",
    "City":"Davidson",
    "State":"NC",
    "Control":"Private not-for-profit",
    "highestDegree":"Bachelor's degree",
    "SAT_AVG":1353,
    "ADM_RATE":0.2011,
    "TUITION_IN":48376,
    "TUITION_OUT":48376
    }
  },
  {
    "type": "Feature",
    "geometry": {
       "type": "Point",
       "coordinates":  [ -92.722094,41.747952 ]
    },
    "properties": {
    "UNITID":153384,
    "Name":"Grinnell College",
    "City":"Grinnell",
    "State":"IA",
    "Control":"Private not-for-profit",
    "highestDegree":"Bachelor's degree",
    "SAT_AVG":1410,
    "ADM_RATE":0.2019,
    "TUITION_IN":48758,
    "TUITION_OUT":48758
    }
  },
  {
    "type": "Feature",
    "geometry": {
       "type": "Point",
       "coordinates":  [ -73.763004,40.81357 ]
    },
    "properties": {
    "UNITID":197027,
    "Name":"United States Merchant Marine Academy",
    "City":"Kings Point",
    "State":"NY",
    "Control":"Public",
    "highestDegree":"Master's degree",
    "SAT_AVG":1268,
    "ADM_RATE":0.203,
    "TUITION_IN":1167,
    "TUITION_OUT":1167
    }
  },
  {
    "type": "Feature",
    "geometry": {
       "type": "Point",
       "coordinates":  [ -75.305207,40.007452 ]
    },
    "properties": {
    "UNITID":212911,
    "Name":"Haverford College",
    "City":"Haverford",
    "State":"PA",
    "Control":"Private not-for-profit",
    "highestDegree":"Bachelor's degree",
    "SAT_AVG":1431,
    "ADM_RATE":0.214,
    "TUITION_IN":51259,
    "TUITION_OUT":51259
    }
  },
  {
    "type": "Feature",
    "geometry": {
       "type": "Point",
       "coordinates":  [ -79.941993,40.44357 ]
    },
    "properties": {
    "UNITID":211440,
    "Name":"Carnegie Mellon University",
    "City":"Pittsburgh",
    "State":"PA",
    "Control":"Private not-for-profit",
    "highestDegree":"Doctor's degree - research/scholarship",
    "SAT_AVG":1458,
    "ADM_RATE":0.2171,
    "TUITION_IN":52310,
    "TUITION_OUT":52310
    }
  },
  {
    "type": "Feature",
    "geometry": {
       "type": "Point",
       "coordinates":  [ -82.875068,37.335087 ]
    },
    "properties": {
    "UNITID":156189,
    "Name":"Alice Lloyd College",
    "City":"Pippa Passes",
    "State":"KY",
    "Control":"Private not-for-profit",
    "highestDegree":"Bachelor's degree",
    "SAT_AVG":1010,
    "ADM_RATE":0.2219,
    "TUITION_IN":11550,
    "TUITION_OUT":11550
    }
  },
  {
    "type": "Feature",
    "geometry": {
       "type": "Point",
       "coordinates":  [ -93.154666,44.462318 ]
    },
    "properties": {
    "UNITID":173258,
    "Name":"Carleton College",
    "City":"Northfield",
    "State":"MN",
    "Control":"Private not-for-profit",
    "highestDegree":"Bachelor's degree",
    "SAT_AVG":1413,
    "ADM_RATE":0.2262,
    "TUITION_IN":50874,
    "TUITION_OUT":50874
    }
  },
  {
    "type": "Feature",
    "geometry": {
       "type": "Point",
       "coordinates":  [ -96.887124,32.913698 ]
    },
    "properties": {
    "UNITID":224244,
    "Name":"Dallas Christian College",
    "City":"Dallas",
    "State":"TX",
    "Control":"Private not-for-profit",
    "highestDegree":"Bachelor's degree",
    "SAT_AVG":886,
    "ADM_RATE":0.2267,
    "TUITION_IN":17454,
    "TUITION_OUT":17454
    }
  },
  {
    "type": "Feature",
    "geometry": {
       "type": "Point",
       "coordinates":  [ -75.950474,40.32606 ]
    },
    "properties": {
    "UNITID":215594,
    "Name":"The Reading Hospital School of Health Sciences",
    "City":"Reading",
    "State":"PA",
    "Control":"Private not-for-profit",
    "highestDegree":"Non-degree granting",
    "SAT_AVG":932,
    "ADM_RATE":0.2273,
    "TUITION_IN":9825,
    "TUITION_OUT":9825
    }
  },
  {
    "type": "Feature",
    "geometry": {
       "type": "Point",
       "coordinates":  [ -106.905211,34.067041 ]
    },
    "properties": {
    "UNITID":187967,
    "Name":"New Mexico Institute of Mining and Technology",
    "City":"Socorro",
    "State":"NM",
    "Control":"Public",
    "highestDegree":"Doctor's degree - research/scholarship",
    "SAT_AVG":1195,
    "ADM_RATE":0.2345,
    "TUITION_IN":6891,
    "TUITION_OUT":20041
    }
  },
  {
    "type": "Feature",
    "geometry": {
       "type": "Point",
       "coordinates":  [ -96.853492,32.40443 ]
    },
    "properties": {
    "UNITID":228325,
    "Name":"Southwestern Assemblies of God University",
    "City":"Waxahachie",
    "State":"TX",
    "Control":"Private not-for-profit",
    "highestDegree":"Master's degree",
    "SAT_AVG":980,
    "ADM_RATE":0.2347,
    "TUITION_IN":19560,
    "TUITION_OUT":19560
    }
  },
  {
    "type": "Feature",
    "geometry": {
       "type": "Point",
       "coordinates":  [ -79.443018,37.788939 ]
    },
    "properties": {
    "UNITID":234207,
    "Name":"Washington and Lee University",
    "City":"Lexington",
    "State":"VA",
    "Control":"Private not-for-profit",
    "highestDegree":"Doctor's degree -  professional practice",
    "SAT_AVG":1396,
    "ADM_RATE":0.2358,
    "TUITION_IN":48267,
    "TUITION_OUT":48267
    }
  },
  {
    "type": "Feature",
    "geometry": {
       "type": "Point",
       "coordinates":  [ -79.18222,37.350232 ]
    },
    "properties": {
    "UNITID":232557,
    "Name":"Liberty University",
    "City":"Lynchburg",
    "State":"VA",
    "Control":"Private not-for-profit",
    "highestDegree":"Doctor's degree - research/scholarship and professional practice",
    "SAT_AVG":1094,
    "ADM_RATE":0.2438,
    "TUITION_IN":21292,
    "TUITION_OUT":21292
    }
  },
  {
    "type": "Feature",
    "geometry": {
       "type": "Point",
       "coordinates":  [ -81.993225,33.469545 ]
    },
    "properties": {
    "UNITID":140720,
    "Name":"Paine College",
    "City":"Augusta",
    "State":"GA",
    "Control":"Private not-for-profit",
    "highestDegree":"Bachelor's degree",
    "SAT_AVG":745,
    "ADM_RATE":0.2458,
    "TUITION_IN":14224,
    "TUITION_OUT":14224
    }
  },
  {
    "type": "Feature",
    "geometry": {
       "type": "Point",
       "coordinates":  [ -71.265585,42.299958 ]
    },
    "properties": {
    "UNITID":164580,
    "Name":"Babson College",
    "City":"Wellesley",
    "State":"MA",
    "Control":"Private not-for-profit",
    "highestDegree":"Master's degree",
    "SAT_AVG":1281,
    "ADM_RATE":0.2459,
    "TUITION_IN":48288,
    "TUITION_OUT":48288
    }
  },
  {
    "type": "Feature",
    "geometry": {
       "type": "Point",
       "coordinates":  [ -84.325512,33.790183 ]
    },
    "properties": {
    "UNITID":139658,
    "Name":"Emory University",
    "City":"Atlanta",
    "State":"GA",
    "Control":"Private not-for-profit",
    "highestDegree":"Doctor's degree - research/scholarship and professional practice",
    "SAT_AVG":1397,
    "ADM_RATE":0.2529,
    "TUITION_IN":47954,
    "TUITION_OUT":47954
    }
  },
  {
    "type": "Feature",
    "geometry": {
       "type": "Point",
       "coordinates":  [ -90.122144,29.940069 ]
    },
    "properties": {
    "UNITID":160755,
    "Name":"Tulane University of Louisiana",
    "City":"New Orleans",
    "State":"LA",
    "Control":"Private not-for-profit",
    "highestDegree":"Doctor's degree - research/scholarship and professional practice",
    "SAT_AVG":1346,
    "ADM_RATE":0.255,
    "TUITION_IN":51010,
    "TUITION_OUT":51010
    }
  },
  {
    "type": "Feature",
    "geometry": {
       "type": "Point",
       "coordinates":  [ -84.394832,33.77242 ]
    },
    "properties": {
    "UNITID":139755,
    "Name":"Georgia Institute of Technology-Main Campus",
    "City":"Atlanta",
    "State":"GA",
    "Control":"Public",
    "highestDegree":"Doctor's degree - research/scholarship",
    "SAT_AVG":1417,
    "ADM_RATE":0.2577,
    "TUITION_IN":12212,
    "TUITION_OUT":32404
    }
  },
  {
    "type": "Feature",
    "geometry": {
       "type": "Point",
       "coordinates":  [ -77.088875,38.936005 ]
    },
    "properties": {
    "UNITID":131159,
    "Name":"American University",
    "City":"Washington",
    "State":"DC",
    "Control":"Private not-for-profit",
    "highestDegree":"Doctor's degree - research/scholarship and professional practice",
    "SAT_AVG":1262,
    "ADM_RATE":0.2591,
    "TUITION_IN":44853,
    "TUITION_OUT":44853
    }
  },
  {
    "type": "Feature",
    "geometry": {
       "type": "Point",
       "coordinates":  [ -75.408195,43.050245 ]
    },
    "properties": {
    "UNITID":191515,
    "Name":"Hamilton College",
    "City":"Clinton",
    "State":"NY",
    "Control":"Private not-for-profit",
    "highestDegree":"Bachelor's degree",
    "SAT_AVG":1402,
    "ADM_RATE":0.2608,
    "TUITION_IN":51240,
    "TUITION_OUT":51240
    }
  },
  {
    "type": "Feature",
    "geometry": {
       "type": "Point",
       "coordinates":  [ -75.380236,40.606822 ]
    },
    "properties": {
    "UNITID":213543,
    "Name":"Lehigh University",
    "City":"Bethlehem",
    "State":"PA",
    "Control":"Private not-for-profit",
    "highestDegree":"Doctor's degree - research/scholarship",
    "SAT_AVG":1340,
    "ADM_RATE":0.2611,
    "TUITION_IN":48320,
    "TUITION_OUT":48320
    }
  },
  {
    "type": "Feature",
    "geometry": {
       "type": "Point",
       "coordinates":  [ -83.89537,32.537595 ]
    },
    "properties": {
    "UNITID":139719,
    "Name":"Fort Valley State University",
    "City":"Fort Valley",
    "State":"GA",
    "Control":"Public",
    "highestDegree":"Master's degree",
    "SAT_AVG":855,
    "ADM_RATE":0.2645,
    "TUITION_IN":5594,
    "TUITION_OUT":5594
    }
  },
  {
    "type": "Feature",
    "geometry": {
       "type": "Point",
       "coordinates":  [ -65.989694,18.391471 ]
    },
    "properties": {
    "UNITID":243142,
    "Name":"University of Puerto Rico-Carolina",
    "City":"Carolina",
    "State":"PR",
    "Control":"Public",
    "highestDegree":"Bachelor's degree",
    "SAT_AVG":1028,
    "ADM_RATE":0.265,
    "TUITION_IN":3107,
    "TUITION_OUT":6139
    }
  },
  {
    "type": "Feature",
    "geometry": {
       "type": "Point",
       "coordinates":  [ -82.397977,40.374408 ]
    },
    "properties": {
    "UNITID":203535,
    "Name":"Kenyon College",
    "City":"Gambier",
    "State":"OH",
    "Control":"Private not-for-profit",
    "highestDegree":"Bachelor's degree",
    "SAT_AVG":1359,
    "ADM_RATE":0.2658,
    "TUITION_IN":51200,
    "TUITION_OUT":51200
    }
  },
  {
    "type": "Feature",
    "geometry": {
       "type": "Point",
       "coordinates":  [ -73.895088,41.686895 ]
    },
    "properties": {
    "UNITID":197133,
    "Name":"Vassar College",
    "City":"Poughkeepsie",
    "State":"NY",
    "Control":"Private not-for-profit",
    "highestDegree":"Master's degree",
    "SAT_AVG":1409,
    "ADM_RATE":0.2688,
    "TUITION_IN":53090,
    "TUITION_OUT":53090
    }
  },
  {
    "type": "Feature",
    "geometry": {
       "type": "Point",
       "coordinates":  [ -79.050969,35.911769 ]
    },
    "properties": {
    "UNITID":199120,
    "Name":"University of North Carolina at Chapel Hill",
    "City":"Chapel Hill",
    "State":"NC",
    "Control":"Public",
    "highestDegree":"Doctor's degree - research/scholarship and professional practice",
    "SAT_AVG":1338,
    "ADM_RATE":0.2694,
    "TUITION_IN":8834,
    "TUITION_OUT":33916
    }
  },
  {
    "type": "Feature",
    "geometry": {
       "type": "Point",
       "coordinates":  [ -157.926586,21.642074 ]
    },
    "properties": {
    "UNITID":230047,
    "Name":"Brigham Young University-Hawaii",
    "City":"Laie",
    "State":"HI",
    "Control":"Private not-for-profit",
    "highestDegree":"Bachelor's degree",
    "SAT_AVG":1096,
    "ADM_RATE":0.2708,
    "TUITION_IN":5240,
    "TUITION_OUT":5240
    }
  },
  {
    "type": "Feature",
    "geometry": {
       "type": "Point",
       "coordinates":  [ -92.427259,39.395963 ]
    },
    "properties": {
    "UNITID":176910,
    "Name":"Central Christian College of the Bible",
    "City":"Moberly",
    "State":"MO",
    "Control":"Private not-for-profit",
    "highestDegree":"Bachelor's degree",
    "SAT_AVG":1026,
    "ADM_RATE":0.276,
    "TUITION_IN":13700,
    "TUITION_OUT":13700
    }
  },
  {
    "type": "Feature",
    "geometry": {
       "type": "Point",
       "coordinates":  [ -82.216795,41.291992 ]
    },
    "properties": {
    "UNITID":204501,
    "Name":"Oberlin College",
    "City":"Oberlin",
    "State":"OH",
    "Control":"Private not-for-profit",
    "highestDegree":"Master's degree",
    "SAT_AVG":1364,
    "ADM_RATE":0.2803,
    "TUITION_IN":52002,
    "TUITION_OUT":52002
    }
  },
  {
    "type": "Feature",
    "geometry": {
       "type": "Point",
       "coordinates":  [ -75.209786,40.69956 ]
    },
    "properties": {
    "UNITID":213385,
    "Name":"Lafayette College",
    "City":"Easton",
    "State":"PA",
    "Control":"Private not-for-profit",
    "highestDegree":"Bachelor's degree",
    "SAT_AVG":1297,
    "ADM_RATE":0.2829,
    "TUITION_IN":49635,
    "TUITION_OUT":49635
    }
  },
  {
    "type": "Feature",
    "geometry": {
       "type": "Point",
       "coordinates":  [ -83.742769,42.275921 ]
    },
    "properties": {
    "UNITID":170976,
    "Name":"University of Michigan-Ann Arbor",
    "City":"Ann Arbor",
    "State":"MI",
    "Control":"Public",
    "highestDegree":"Doctor's degree - research/scholarship and professional practice",
    "SAT_AVG":1386,
    "ADM_RATE":0.2859,
    "TUITION_IN":14402,
    "TUITION_OUT":45410
    }
  },
  {
    "type": "Feature",
    "geometry": {
       "type": "Point",
       "coordinates":  [ -71.306605,42.291554 ]
    },
    "properties": {
    "UNITID":168218,
    "Name":"Wellesley College",
    "City":"Wellesley",
    "State":"MA",
    "Control":"Private not-for-profit",
    "highestDegree":"Bachelor's degree",
    "SAT_AVG":1403,
    "ADM_RATE":0.2859,
    "TUITION_IN":48802,
    "TUITION_OUT":48802
    }
  },
  {
    "type": "Feature",
    "geometry": {
       "type": "Point",
       "coordinates":  [ -75.536346,42.819475 ]
    },
    "properties": {
    "UNITID":190099,
    "Name":"Colgate University",
    "City":"Hamilton",
    "State":"NY",
    "Control":"Private not-for-profit",
    "highestDegree":"Master's degree",
    "SAT_AVG":1388,
    "ADM_RATE":0.2878,
    "TUITION_IN":51955,
    "TUITION_OUT":51955
    }
  },
  {
    "type": "Feature",
    "geometry": {
       "type": "Point",
       "coordinates":  [ -71.088782,42.339992 ]
    },
    "properties": {
    "UNITID":167358,
    "Name":"Northeastern University",
    "City":"Boston",
    "State":"MA",
    "Control":"Private not-for-profit",
    "highestDegree":"Doctor's degree - research/scholarship and professional practice",
    "SAT_AVG":1434,
    "ADM_RATE":0.2888,
    "TUITION_IN":47653,
    "TUITION_OUT":47653
    }
  },
  {
    "type": "Feature",
    "geometry": {
       "type": "Point",
       "coordinates":  [ -73.785335,43.097035 ]
    },
    "properties": {
    "UNITID":195526,
    "Name":"Skidmore College",
    "City":"Saratoga Springs",
    "State":"NY",
    "Control":"Private not-for-profit",
    "highestDegree":"Master's degree",
    "SAT_AVG":1240,
    "ADM_RATE":0.2908,
    "TUITION_IN":50834,
    "TUITION_OUT":50834
    }
  },
  {
    "type": "Feature",
    "geometry": {
       "type": "Point",
       "coordinates":  [ -73.644909,40.884444 ]
    },
    "properties": {
    "UNITID":197221,
    "Name":"Webb Institute",
    "City":"Glen Cove",
    "State":"NY",
    "Control":"Private not-for-profit",
    "highestDegree":"Bachelor's degree",
    "SAT_AVG":1480,
    "ADM_RATE":0.2931,
    "TUITION_IN":47400,
    "TUITION_OUT":47400
    }
  },
  {
    "type": "Feature",
    "geometry": {
       "type": "Point",
       "coordinates":  [ -90.294569,38.775771 ]
    },
    "properties": {
    "UNITID":179256,
    "Name":"Saint Louis Christian College",
    "City":"Florissant",
    "State":"MO",
    "Control":"Private not-for-profit",
    "highestDegree":"Bachelor's degree",
    "SAT_AVG":780,
    "ADM_RATE":0.2941,
    "TUITION_IN":11240,
    "TUITION_OUT":11240
    }
  },
  {
    "type": "Feature",
    "geometry": {
       "type": "Point",
       "coordinates":  [ -71.107942,42.351118 ]
    },
    "properties": {
    "UNITID":164988,
    "Name":"Boston University",
    "City":"Boston",
    "State":"MA",
    "Control":"Private not-for-profit",
    "highestDegree":"Doctor's degree - research/scholarship and professional practice",
    "SAT_AVG":1328,
    "ADM_RATE":0.2943,
    "TUITION_IN":50240,
    "TUITION_OUT":50240
    }
  },
  {
    "type": "Feature",
    "geometry": {
       "type": "Point",
       "coordinates":  [ -120.657311,35.299513 ]
    },
    "properties": {
    "UNITID":110422,
    "Name":"California Polytechnic State University-San Luis Obispo",
    "City":"San Luis Obispo",
    "State":"CA",
    "Control":"Public",
    "highestDegree":"Master's degree",
    "SAT_AVG":1270,
    "ADM_RATE":0.2949,
    "TUITION_IN":9075,
    "TUITION_OUT":20235
    }
  },
  {
    "type": "Feature",
    "geometry": {
       "type": "Point",
       "coordinates":  [ -78.503428,38.035665 ]
    },
    "properties": {
    "UNITID":234076,
    "Name":"University of Virginia-Main Campus",
    "City":"Charlottesville",
    "State":"VA",
    "Control":"Public",
    "highestDegree":"Doctor's degree - research/scholarship and professional practice",
    "SAT_AVG":1362,
    "ADM_RATE":0.2986,
    "TUITION_IN":16412,
    "TUITION_OUT":45756
    }
  },
  {
    "type": "Feature",
    "geometry": {
       "type": "Point",
       "coordinates":  [ -117.711294,34.104147 ]
    },
    "properties": {
    "UNITID":123165,
    "Name":"Scripps College",
    "City":"Claremont",
    "State":"CA",
    "Control":"Private not-for-profit",
    "highestDegree":"Bachelor's degree",
    "SAT_AVG":1353,
    "ADM_RATE":0.2988,
    "TUITION_IN":50982,
    "TUITION_OUT":50982
    }
  },
  {
    "type": "Feature",
    "geometry": {
       "type": "Point",
       "coordinates":  [ -76.882616,40.954317 ]
    },
    "properties": {
    "UNITID":211291,
    "Name":"Bucknell University",
    "City":"Lewisburg",
    "State":"PA",
    "Control":"Private not-for-profit",
    "highestDegree":"Master's degree",
    "SAT_AVG":1312,
    "ADM_RATE":0.2992,
    "TUITION_IN":51960,
    "TUITION_OUT":51960
    }
  },
  {
    "type": "Feature",
    "geometry": {
       "type": "Point",
       "coordinates":  [ -77.018966,38.922392 ]
    },
    "properties": {
    "UNITID":131520,
    "Name":"Howard University",
    "City":"Washington",
    "State":"DC",
    "Control":"Private not-for-profit",
    "highestDegree":"Doctor's degree - research/scholarship and professional practice",
    "SAT_AVG":1142,
    "ADM_RATE":0.3,
    "TUITION_IN":24908,
    "TUITION_OUT":24908
    }
  },
  {
    "type": "Feature",
    "geometry": {
       "type": "Point",
       "coordinates":  [ -84.513913,39.108805 ]
    },
    "properties": {
    "UNITID":201061,
    "Name":"Art Academy of Cincinnati",
    "City":"Cincinnati",
    "State":"OH",
    "Control":"Private not-for-profit",
    "highestDegree":"Master's degree",
    "SAT_AVG":970,
    "ADM_RATE":0.3054,
    "TUITION_IN":29752,
    "TUITION_OUT":29752
    }
  },
  {
    "type": "Feature",
    "geometry": {
       "type": "Point",
       "coordinates":  [ -73.983417,40.740238 ]
    },
    "properties": {
    "UNITID":190512,
    "Name":"CUNY Bernard M Baruch College",
    "City":"New York",
    "State":"NY",
    "Control":"Public",
    "highestDegree":"Master's degree",
    "SAT_AVG":1240,
    "ADM_RATE":0.3067,
    "TUITION_IN":6810,
    "TUITION_OUT":13920
    }
  },
  {
    "type": "Feature",
    "geometry": {
       "type": "Point",
       "coordinates":  [ -84.290226,30.428504 ]
    },
    "properties": {
    "UNITID":133650,
    "Name":"Florida Agricultural and Mechanical University",
    "City":"Tallahassee",
    "State":"FL",
    "Control":"Public",
    "highestDegree":"Doctor's degree - research/scholarship and professional practice",
    "SAT_AVG":1001,
    "ADM_RATE":0.3111,
    "TUITION_IN":5785,
    "TUITION_OUT":17725
    }
  },
  {
    "type": "Feature",
    "geometry": {
       "type": "Point",
       "coordinates":  [ -71.169242,42.336213 ]
    },
    "properties": {
    "UNITID":164924,
    "Name":"Boston College",
    "City":"Chestnut Hill",
    "State":"MA",
    "Control":"Private not-for-profit",
    "highestDegree":"Doctor's degree - research/scholarship and professional practice",
    "SAT_AVG":1378,
    "ADM_RATE":0.3114,
    "TUITION_IN":51296,
    "TUITION_OUT":51296
    }
  },
  {
    "type": "Feature",
    "geometry": {
       "type": "Point",
       "coordinates":  [ -122.630348,45.480959 ]
    },
    "properties": {
    "UNITID":209922,
    "Name":"Reed College",
    "City":"Portland",
    "State":"OR",
    "Control":"Private not-for-profit",
    "highestDegree":"Master's degree",
    "SAT_AVG":1380,
    "ADM_RATE":0.3131,
    "TUITION_IN":52150,
    "TUITION_OUT":52150
    }
  },
  {
    "type": "Feature",
    "geometry": {
       "type": "Point",
       "coordinates":  [ -73.997264,40.729452 ]
    },
    "properties": {
    "UNITID":193900,
    "Name":"New York University",
    "City":"New York",
    "State":"NY",
    "Control":"Private not-for-profit",
    "highestDegree":"Doctor's degree - research/scholarship and professional practice",
    "SAT_AVG":1371,
    "ADM_RATE":0.3187,
    "TUITION_IN":49062,
    "TUITION_OUT":49062
    }
  },
  {
    "type": "Feature",
    "geometry": {
       "type": "Point",
       "coordinates":  [ -118.11204,33.782818 ]
    },
    "properties": {
    "UNITID":110583,
    "Name":"California State University-Long Beach",
    "City":"Long Beach",
    "State":"CA",
    "Control":"Public",
    "highestDegree":"Doctor's degree - other",
    "SAT_AVG":1052,
    "ADM_RATE":0.3189,
    "TUITION_IN":6460,
    "TUITION_OUT":17620
    }
  },
  {
    "type": "Feature",
    "geometry": {
       "type": "Point",
       "coordinates":  [ -96.755864,32.677195 ]
    },
    "properties": {
    "UNITID":227429,
    "Name":"Paul Quinn College",
    "City":"Dallas",
    "State":"TX",
    "Control":"Private not-for-profit",
    "highestDegree":"Bachelor's degree",
    "SAT_AVG":844,
    "ADM_RATE":0.319,
    "TUITION_IN":8318,
    "TUITION_OUT":8318
    }
  },
  {
    "type": "Feature",
    "geometry": {
       "type": "Point",
       "coordinates":  [ -117.88573,33.87616 ]
    },
    "properties": {
    "UNITID":120537,
    "Name":"Hope International University",
    "City":"Fullerton",
    "State":"CA",
    "Control":"Private not-for-profit",
    "highestDegree":"Master's degree",
    "SAT_AVG":942,
    "ADM_RATE":0.3211,
    "TUITION_IN":30550,
    "TUITION_OUT":30550
    }
  },
  {
    "type": "Feature",
    "geometry": {
       "type": "Point",
       "coordinates":  [ -73.895379,40.872962 ]
    },
    "properties": {
    "UNITID":190637,
    "Name":"CUNY Lehman College",
    "City":"Bronx",
    "State":"NY",
    "Control":"Public",
    "highestDegree":"Master's degree",
    "SAT_AVG":995,
    "ADM_RATE":0.3248,
    "TUITION_IN":6812,
    "TUITION_OUT":13922
    }
  },
  {
    "type": "Feature",
    "geometry": {
       "type": "Point",
       "coordinates":  [ -77.538806,37.577393 ]
    },
    "properties": {
    "UNITID":233374,
    "Name":"University of Richmond",
    "City":"University of Richmond",
    "State":"VA",
    "Control":"Private not-for-profit",
    "highestDegree":"Doctor's degree -  professional practice",
    "SAT_AVG":1338,
    "ADM_RATE":0.3248,
    "TUITION_IN":49420,
    "TUITION_OUT":49420
    }
  },
  {
    "type": "Feature",
    "geometry": {
       "type": "Point",
       "coordinates":  [ -84.292893,37.57202 ]
    },
    "properties": {
    "UNITID":156295,
    "Name":"Berea College",
    "City":"Berea",
    "State":"KY",
    "Control":"Private not-for-profit",
    "highestDegree":"Bachelor's degree",
    "SAT_AVG":1123,
    "ADM_RATE":0.328,
    "TUITION_IN":25470,
    "TUITION_OUT":25470
    }
  },
  {
    "type": "Feature",
    "geometry": {
       "type": "Point",
       "coordinates":  [ -87.35144,38.340891 ]
    },
    "properties": {
    "UNITID":152099,
    "Name":"Oakland City University",
    "City":"Oakland City",
    "State":"IN",
    "Control":"Private not-for-profit",
    "highestDegree":"Doctor's degree - research/scholarship",
    "SAT_AVG":978,
    "ADM_RATE":0.3312,
    "TUITION_IN":23400,
    "TUITION_OUT":23400
    }
  },
  {
    "type": "Feature",
    "geometry": {
       "type": "Point",
       "coordinates":  [ -92.414409,31.178616 ]
    },
    "properties": {
    "UNITID":159382,
    "Name":"Louisiana State University-Alexandria",
    "City":"Alexandria",
    "State":"LA",
    "Control":"Public",
    "highestDegree":"Bachelor's degree",
    "SAT_AVG":969,
    "ADM_RATE":0.3332,
    "TUITION_IN":6668,
    "TUITION_OUT":13934
    }
  },
  {
    "type": "Feature",
    "geometry": {
       "type": "Point",
       "coordinates":  [ -103.675715,41.829274 ]
    },
    "properties": {
    "UNITID":181543,
    "Name":"Summit Christian College",
    "City":"Gering",
    "State":"NE",
    "Control":"Private not-for-profit",
    "highestDegree":"Bachelor's degree",
    "SAT_AVG":970,
    "ADM_RATE":0.3333,
    "TUITION_IN":5974,
    "TUITION_OUT":5974
    }
  },
  {
    "type": "Feature",
    "geometry": {
       "type": "Point",
       "coordinates":  [ -77.000608,38.986349 ]
    },
    "properties": {
    "UNITID":162210,
    "Name":"Washington Adventist University",
    "City":"Takoma Park",
    "State":"MD",
    "Control":"Private not-for-profit",
    "highestDegree":"Master's degree",
    "SAT_AVG":854,
    "ADM_RATE":0.3337,
    "TUITION_IN":23400,
    "TUITION_OUT":23400
    }
  },
  {
    "type": "Feature",
    "geometry": {
       "type": "Point",
       "coordinates":  [ -71.254716,42.364947 ]
    },
    "properties": {
    "UNITID":165015,
    "Name":"Brandeis University",
    "City":"Waltham",
    "State":"MA",
    "Control":"Private not-for-profit",
    "highestDegree":"Doctor's degree - research/scholarship",
    "SAT_AVG":1377,
    "ADM_RATE":0.3344,
    "TUITION_IN":51245,
    "TUITION_OUT":51245
    }
  },
  {
    "type": "Feature",
    "geometry": {
       "type": "Point",
       "coordinates":  [ -73.98841,40.770351 ]
    },
    "properties": {
    "UNITID":190600,
    "Name":"CUNY John Jay College of Criminal Justice",
    "City":"New York",
    "State":"NY",
    "Control":"Public",
    "highestDegree":"Master's degree",
    "SAT_AVG":980,
    "ADM_RATE":0.3376,
    "TUITION_IN":6810,
    "TUITION_OUT":13920
    }
  },
  {
    "type": "Feature",
    "geometry": {
       "type": "Point",
       "coordinates":  [ -71.407692,41.825935 ]
    },
    "properties": {
    "UNITID":217493,
    "Name":"Rhode Island School of Design",
    "City":"Providence",
    "State":"RI",
    "Control":"Private not-for-profit",
    "highestDegree":"Master's degree",
    "SAT_AVG":1214,
    "ADM_RATE":0.3412,
    "TUITION_IN":47110,
    "TUITION_OUT":47110
    }
  },
  {
    "type": "Feature",
    "geometry": {
       "type": "Point",
       "coordinates":  [ -95.515954,29.693819 ]
    },
    "properties": {
    "UNITID":225399,
    "Name":"Houston Baptist University",
    "City":"Houston",
    "State":"TX",
    "Control":"Private not-for-profit",
    "highestDegree":"Master's degree",
    "SAT_AVG":1057,
    "ADM_RATE":0.3456,
    "TUITION_IN":30800,
    "TUITION_OUT":30800
    }
  },
  {
    "type": "Feature",
    "geometry": {
       "type": "Point",
       "coordinates":  [ -122.961129,44.882399 ]
    },
    "properties": {
    "UNITID":210331,
    "Name":"Corban University",
    "City":"Salem",
    "State":"OR",
    "Control":"Private not-for-profit",
    "highestDegree":"Doctor's degree - other",
    "SAT_AVG":1063,
    "ADM_RATE":0.3456,
    "TUITION_IN":30640,
    "TUITION_OUT":30640
    }
  },
  {
    "type": "Feature",
    "geometry": {
       "type": "Point",
       "coordinates":  [ -117.071228,32.77525 ]
    },
    "properties": {
    "UNITID":122409,
    "Name":"San Diego State University",
    "City":"San Diego",
    "State":"CA",
    "Control":"Public",
    "highestDegree":"Doctor's degree - other",
    "SAT_AVG":1132,
    "ADM_RATE":0.3464,
    "TUITION_IN":7084,
    "TUITION_OUT":18244
    }
  },
  {
    "type": "Feature",
    "geometry": {
       "type": "Point",
       "coordinates":  [ -73.962404,40.768615 ]
    },
    "properties": {
    "UNITID":194116,
    "Name":"New York School of Interior Design",
    "City":"New York",
    "State":"NY",
    "Control":"Private not-for-profit",
    "highestDegree":"Master's degree",
    "SAT_AVG":957,
    "ADM_RATE":0.3478,
    "TUITION_IN":22710,
    "TUITION_OUT":22710
    }
  },
  {
    "type": "Feature",
    "geometry": {
       "type": "Point",
       "coordinates":  [ -96.048511,41.265973 ]
    },
    "properties": {
    "UNITID":181297,
    "Name":"Nebraska Methodist College of Nursing & Allied Health",
    "City":"Omaha",
    "State":"NE",
    "Control":"Private not-for-profit",
    "highestDegree":"Master's degree",
    "SAT_AVG":1050,
    "ADM_RATE":0.3542,
    "TUITION_IN":13802,
    "TUITION_OUT":13802
    }
  },
  {
    "type": "Feature",
    "geometry": {
       "type": "Point",
       "coordinates":  [ -81.609596,41.507419 ]
    },
    "properties": {
    "UNITID":201645,
    "Name":"Case Western Reserve University",
    "City":"Cleveland",
    "State":"OH",
    "Control":"Private not-for-profit",
    "highestDegree":"Doctor's degree - research/scholarship and professional practice",
    "SAT_AVG":1408,
    "ADM_RATE":0.3544,
    "TUITION_IN":46006,
    "TUITION_OUT":46006
    }
  },
  {
    "type": "Feature",
    "geometry": {
       "type": "Point",
       "coordinates":  [ -83.821513,34.303117 ]
    },
    "properties": {
    "UNITID":139199,
    "Name":"Brenau University",
    "City":"Gainesville",
    "State":"GA",
    "Control":"Private not-for-profit",
    "highestDegree":"Doctor's degree -  professional practice",
    "SAT_AVG":973,
    "ADM_RATE":0.3565,
    "TUITION_IN":27152,
    "TUITION_OUT":27152
    }
  },
  {
    "type": "Feature",
    "geometry": {
       "type": "Point",
       "coordinates":  [ -90.706011,42.508307 ]
    },
    "properties": {
    "UNITID":153302,
    "Name":"Emmaus Bible College",
    "City":"Dubuque",
    "State":"IA",
    "Control":"Private not-for-profit",
    "highestDegree":"Bachelor's degree",
    "SAT_AVG":1088,
    "ADM_RATE":0.3565,
    "TUITION_IN":16580,
    "TUITION_OUT":16580
    }
  },
  {
    "type": "Feature",
    "geometry": {
       "type": "Point",
       "coordinates":  [ -117.237793,32.876598 ]
    },
    "properties": {
    "UNITID":110680,
    "Name":"University of California-San Diego",
    "City":"La Jolla",
    "State":"CA",
    "Control":"Public",
    "highestDegree":"Doctor's degree - research/scholarship and professional practice",
    "SAT_AVG":1324,
    "ADM_RATE":0.3566,
    "TUITION_IN":13645,
    "TUITION_OUT":40327
    }
  },
  {
    "type": "Feature",
    "geometry": {
       "type": "Point",
       "coordinates":  [ -82.636136,27.763872 ]
    },
    "properties": {
    "UNITID":448840,
    "Name":"University of South Florida-St. Petersburg",
    "City":"St. Petersburg",
    "State":"FL",
    "Control":"Public",
    "highestDegree":"Master's degree",
    "SAT_AVG":1155,
    "ADM_RATE":0.3567,
    "TUITION_IN":5821,
    "TUITION_OUT":16735
    }
  },
  {
    "type": "Feature",
    "geometry": {
       "type": "Point",
       "coordinates":  [ -81.07443,34.07551 ]
    },
    "properties": {
    "UNITID":217925,
    "Name":"Columbia International University",
    "City":"Columbia",
    "State":"SC",
    "Control":"Private not-for-profit",
    "highestDegree":"Doctor's degree - research/scholarship",
    "SAT_AVG":1067,
    "ADM_RATE":0.3571,
    "TUITION_IN":21490,
    "TUITION_OUT":21490
    }
  },
  {
    "type": "Feature",
    "geometry": {
       "type": "Point",
       "coordinates":  [ -84.411527,33.745279 ]
    },
    "properties": {
    "UNITID":141060,
    "Name":"Spelman College",
    "City":"Atlanta",
    "State":"GA",
    "Control":"Private not-for-profit",
    "highestDegree":"Bachelor's degree",
    "SAT_AVG":1092,
    "ADM_RATE":0.3573,
    "TUITION_IN":27314,
    "TUITION_OUT":27314
    }
  },
  {
    "type": "Feature",
    "geometry": {
       "type": "Point",
       "coordinates":  [ -119.846426,34.416297 ]
    },
    "properties": {
    "UNITID":110705,
    "Name":"University of California-Santa Barbara",
    "City":"Santa Barbara",
    "State":"CA",
    "Control":"Public",
    "highestDegree":"Doctor's degree - research/scholarship",
    "SAT_AVG":1281,
    "ADM_RATE":0.3577,
    "TUITION_IN":14073,
    "TUITION_OUT":40755
    }
  },
  {
    "type": "Feature",
    "geometry": {
       "type": "Point",
       "coordinates":  [ -79.800232,36.071082 ]
    },
    "properties": {
    "UNITID":198598,
    "Name":"Greensboro College",
    "City":"Greensboro",
    "State":"NC",
    "Control":"Private not-for-profit",
    "highestDegree":"Master's degree",
    "SAT_AVG":926,
    "ADM_RATE":0.3625,
    "TUITION_IN":28000,
    "TUITION_OUT":28000
    }
  },
  {
    "type": "Feature",
    "geometry": {
       "type": "Point",
       "coordinates":  [ -97.721698,30.264672 ]
    },
    "properties": {
    "UNITID":225575,
    "Name":"Huston-Tillotson University",
    "City":"Austin",
    "State":"TX",
    "Control":"Private not-for-profit",
    "highestDegree":"Bachelor's degree",
    "SAT_AVG":787,
    "ADM_RATE":0.3648,
    "TUITION_IN":14346,
    "TUITION_OUT":14346
    }
  },
  {
    "type": "Feature",
    "geometry": {
       "type": "Point",
       "coordinates":  [ -76.708214,37.269489 ]
    },
    "properties": {
    "UNITID":231624,
    "Name":"College of William and Mary",
    "City":"Williamsburg",
    "State":"VA",
    "Control":"Public",
    "highestDegree":"Doctor's degree - research/scholarship and professional practice",
    "SAT_AVG":1360,
    "ADM_RATE":0.3652,
    "TUITION_IN":21234,
    "TUITION_OUT":42274
    }
  },
  {
    "type": "Feature",
    "geometry": {
       "type": "Point",
       "coordinates":  [ -118.707077,34.037786 ]
    },
    "properties": {
    "UNITID":121150,
    "Name":"Pepperdine University",
    "City":"Malibu",
    "State":"CA",
    "Control":"Private not-for-profit",
    "highestDegree":"Doctor's degree - research/scholarship and professional practice",
    "SAT_AVG":1251,
    "ADM_RATE":0.3687,
    "TUITION_IN":50022,
    "TUITION_OUT":50022
    }
  },
  {
    "type": "Feature",
    "geometry": {
       "type": "Point",
       "coordinates":  [ -95.945941,36.152324 ]
    },
    "properties": {
    "UNITID":207971,
    "Name":"University of Tulsa",
    "City":"Tulsa",
    "State":"OK",
    "Control":"Private not-for-profit",
    "highestDegree":"Doctor's degree - research/scholarship and professional practice",
    "SAT_AVG":1308,
    "ADM_RATE":0.3696,
    "TUITION_IN":41509,
    "TUITION_OUT":41509
    }
  },
  {
    "type": "Feature",
    "geometry": {
       "type": "Point",
       "coordinates":  [ -93.168053,44.938565 ]
    },
    "properties": {
    "UNITID":173902,
    "Name":"Macalester College",
    "City":"Saint Paul",
    "State":"MN",
    "Control":"Private not-for-profit",
    "highestDegree":"Bachelor's degree",
    "SAT_AVG":1378,
    "ADM_RATE":0.371,
    "TUITION_IN":50639,
    "TUITION_OUT":50639
    }
  },
  {
    "type": "Feature",
    "geometry": {
       "type": "Point",
       "coordinates":  [ -98.208644,38.219937 ]
    },
    "properties": {
    "UNITID":155937,
    "Name":"Sterling College",
    "City":"Sterling",
    "State":"KS",
    "Control":"Private not-for-profit",
    "highestDegree":"Bachelor's degree",
    "SAT_AVG":967,
    "ADM_RATE":0.3737,
    "TUITION_IN":24250,
    "TUITION_OUT":24250
    }
  },
  {
    "type": "Feature",
    "geometry": {
       "type": "Point",
       "coordinates":  [ -73.949898,40.631517 ]
    },
    "properties": {
    "UNITID":190549,
    "Name":"CUNY Brooklyn College",
    "City":"Brooklyn",
    "State":"NY",
    "Control":"Public",
    "highestDegree":"Master's degree",
    "SAT_AVG":1105,
    "ADM_RATE":0.3749,
    "TUITION_IN":6838,
    "TUITION_OUT":13948
    }
  },
  {
    "type": "Feature",
    "geometry": {
       "type": "Point",
       "coordinates":  [ -97.361537,32.709568 ]
    },
    "properties": {
    "UNITID":228875,
    "Name":"Texas Christian University",
    "City":"Fort Worth",
    "State":"TX",
    "Control":"Private not-for-profit",
    "highestDegree":"Doctor's degree - research/scholarship and professional practice",
    "SAT_AVG":1223,
    "ADM_RATE":0.3758,
    "TUITION_IN":42670,
    "TUITION_OUT":42670
    }
  },
  {
    "type": "Feature",
    "geometry": {
       "type": "Point",
       "coordinates":  [ -83.715417,32.876037 ]
    },
    "properties": {
    "UNITID":141325,
    "Name":"Wesleyan College",
    "City":"Macon",
    "State":"GA",
    "Control":"Private not-for-profit",
    "highestDegree":"Master's degree",
    "SAT_AVG":1035,
    "ADM_RATE":0.3765,
    "TUITION_IN":21750,
    "TUITION_OUT":21750
    }
  },
  {
    "type": "Feature",
    "geometry": {
       "type": "Point",
       "coordinates":  [ -80.278662,25.72126 ]
    },
    "properties": {
    "UNITID":135726,
    "Name":"University of Miami",
    "City":"Coral Gables",
    "State":"FL",
    "Control":"Private not-for-profit",
    "highestDegree":"Doctor's degree - research/scholarship and professional practice",
    "SAT_AVG":1323,
    "ADM_RATE":0.3771,
    "TUITION_IN":47004,
    "TUITION_OUT":47004
    }
  },
  {
    "type": "Feature",
    "geometry": {
       "type": "Point",
       "coordinates":  [ -82.562725,27.39158 ]
    },
    "properties": {
    "UNITID":451671,
    "Name":"University of South Florida Sarasota-Manatee",
    "City":"Sarasota",
    "State":"FL",
    "Control":"Public",
    "highestDegree":"Master's degree",
    "SAT_AVG":1096,
    "ADM_RATE":0.378,
    "TUITION_IN":5587,
    "TUITION_OUT":16501
    }
  },
  {
    "type": "Feature",
    "geometry": {
       "type": "Point",
       "coordinates":  [ -73.964795,40.768669 ]
    },
    "properties": {
    "UNITID":190594,
    "Name":"CUNY Hunter College",
    "City":"New York",
    "State":"NY",
    "Control":"Public",
    "highestDegree":"Doctor's degree -  professional practice",
    "SAT_AVG":1160,
    "ADM_RATE":0.3788,
    "TUITION_IN":6782,
    "TUITION_OUT":13892
    }
  },
  {
    "type": "Feature",
    "geometry": {
       "type": "Point",
       "coordinates":  [ -75.686852,38.207386 ]
    },
    "properties": {
    "UNITID":163338,
    "Name":"University of Maryland Eastern Shore",
    "City":"Princess Anne",
    "State":"MD",
    "Control":"Public",
    "highestDegree":"Doctor's degree - research/scholarship and professional practice",
    "SAT_AVG":872,
    "ADM_RATE":0.3839,
    "TUITION_IN":7804,
    "TUITION_OUT":17188
    }
  },
  {
    "type": "Feature",
    "geometry": {
       "type": "Point",
       "coordinates":  [ -117.735344,33.554546 ]
    },
    "properties": {
    "UNITID":399911,
    "Name":"Soka University of America",
    "City":"Aliso Viejo",
    "State":"CA",
    "Control":"Private not-for-profit",
    "highestDegree":"Master's degree",
    "SAT_AVG":1233,
    "ADM_RATE":0.384,
    "TUITION_IN":31042,
    "TUITION_OUT":31042
    }
  },
  {
    "type": "Feature",
    "geometry": {
       "type": "Point",
       "coordinates":  [ -83.880595,39.707291 ]
    },
    "properties": {
    "UNITID":206491,
    "Name":"Wilberforce University",
    "City":"Wilberforce",
    "State":"OH",
    "Control":"Private not-for-profit",
    "highestDegree":"Master's degree",
    "SAT_AVG":827,
    "ADM_RATE":0.3841,
    "TUITION_IN":13250,
    "TUITION_OUT":13250
    }
  },
  {
    "type": "Feature",
    "geometry": {
       "type": "Point",
       "coordinates":  [ -82.945561,38.338805 ]
    },
    "properties": {
    "UNITID":157100,
    "Name":"Kentucky Christian University",
    "City":"Grayson",
    "State":"KY",
    "Control":"Private not-for-profit",
    "highestDegree":"Master's degree",
    "SAT_AVG":962,
    "ADM_RATE":0.388,
    "TUITION_IN":18560,
    "TUITION_OUT":18560
    }
  },
  {
    "type": "Feature",
    "geometry": {
       "type": "Point",
       "coordinates":  [ -74.025334,40.744776 ]
    },
    "properties": {
    "UNITID":186867,
    "Name":"Stevens Institute of Technology",
    "City":"Hoboken",
    "State":"NJ",
    "Control":"Private not-for-profit",
    "highestDegree":"Doctor's degree - research/scholarship",
    "SAT_AVG":1360,
    "ADM_RATE":0.3911,
    "TUITION_IN":48838,
    "TUITION_OUT":48838
    }
  },
  {
    "type": "Feature",
    "geometry": {
       "type": "Point",
       "coordinates":  [ -89.993707,35.145874 ]
    },
    "properties": {
    "UNITID":220808,
    "Name":"Memphis College of Art",
    "City":"Memphis",
    "State":"TN",
    "Control":"Private not-for-profit",
    "highestDegree":"Master's degree",
    "SAT_AVG":957,
    "ADM_RATE":0.3918,
    "TUITION_IN":31700,
    "TUITION_OUT":31700
    }
  },
  {
    "type": "Feature",
    "geometry": {
       "type": "Point",
       "coordinates":  [ -79.998419,35.994259 ]
    },
    "properties": {
    "UNITID":198747,
    "Name":"Laurel University",
    "City":"High Point",
    "State":"NC",
    "Control":"Private not-for-profit",
    "highestDegree":"Doctor's degree - other",
    "SAT_AVG":963,
    "ADM_RATE":0.3939,
    "TUITION_IN":11230,
    "TUITION_OUT":11230
    }
  },
  {
    "type": "Feature",
    "geometry": {
       "type": "Point",
       "coordinates":  [ -90.06464,29.996587 ]
    },
    "properties": {
    "UNITID":158802,
    "Name":"Dillard University",
    "City":"New Orleans",
    "State":"LA",
    "Control":"Private not-for-profit",
    "highestDegree":"Bachelor's degree",
    "SAT_AVG":931,
    "ADM_RATE":0.394,
    "TUITION_IN":17064,
    "TUITION_OUT":17064
    }
  },
  {
    "type": "Feature",
    "geometry": {
       "type": "Point",
       "coordinates":  [ -89.99445,29.912003 ]
    },
    "properties": {
    "UNITID":160065,
    "Name":"Our Lady of Holy Cross College",
    "City":"New Orleans",
    "State":"LA",
    "Control":"Private not-for-profit",
    "highestDegree":"Master's degree",
    "SAT_AVG":950,
    "ADM_RATE":0.3957,
    "TUITION_IN":11632,
    "TUITION_OUT":11632
    }
  },
  {
    "type": "Feature",
    "geometry": {
       "type": "Point",
       "coordinates":  [ -76.658687,39.311258 ]
    },
    "properties": {
    "UNITID":162283,
    "Name":"Coppin State University",
    "City":"Baltimore",
    "State":"MD",
    "Control":"Public",
    "highestDegree":"Doctor's degree -  professional practice",
    "SAT_AVG":829,
    "ADM_RATE":0.3961,
    "TUITION_IN":7438,
    "TUITION_OUT":13168
    }
  },
  {
    "type": "Feature",
    "geometry": {
       "type": "Point",
       "coordinates":  [ -97.117641,31.54896 ]
    },
    "properties": {
    "UNITID":223232,
    "Name":"Baylor University",
    "City":"Waco",
    "State":"TX",
    "Control":"Private not-for-profit",
    "highestDegree":"Doctor's degree - research/scholarship and professional practice",
    "SAT_AVG":1246,
    "ADM_RATE":0.3972,
    "TUITION_IN":42006,
    "TUITION_OUT":42006
    }
  },
  {
    "type": "Feature",
    "geometry": {
       "type": "Point",
       "coordinates":  [ -81.438945,26.335983 ]
    },
    "properties": {
    "UNITID":446048,
    "Name":"Ave Maria University",
    "City":"Ave Maria",
    "State":"FL",
    "Control":"Private not-for-profit",
    "highestDegree":"Doctor's degree - other",
    "SAT_AVG":1103,
    "ADM_RATE":0.399,
    "TUITION_IN":19128,
    "TUITION_OUT":19128
    }
  },
  {
    "type": "Feature",
    "geometry": {
       "type": "Point",
       "coordinates":  [ -75.313223,40.02736 ]
    },
    "properties": {
    "UNITID":211273,
    "Name":"Bryn Mawr College",
    "City":"Bryn Mawr",
    "State":"PA",
    "Control":"Private not-for-profit",
    "highestDegree":"Doctor's degree - research/scholarship",
    "SAT_AVG":1337,
    "ADM_RATE":0.3994,
    "TUITION_IN":48790,
    "TUITION_OUT":48790
    }
  },
  {
    "type": "Feature",
    "geometry": {
       "type": "Point",
       "coordinates":  [ -77.048363,38.89923 ]
    },
    "properties": {
    "UNITID":131469,
    "Name":"George Washington University",
    "City":"Washington",
    "State":"DC",
    "Control":"Private not-for-profit",
    "highestDegree":"Doctor's degree - research/scholarship and professional practice",
    "SAT_AVG":1301,
    "ADM_RATE":0.4021,
    "TUITION_IN":51950,
    "TUITION_OUT":51950
    }
  },
  {
    "type": "Feature",
    "geometry": {
       "type": "Point",
       "coordinates":  [ -94.236643,36.2141 ]
    },
    "properties": {
    "UNITID":446233,
    "Name":"Ecclesia College",
    "City":"Springdale",
    "State":"AR",
    "Control":"Private not-for-profit",
    "highestDegree":"Bachelor's degree",
    "SAT_AVG":845,
    "ADM_RATE":0.4028,
    "TUITION_IN":15140,
    "TUITION_OUT":15140
    }
  },
  {
    "type": "Feature",
    "geometry": {
       "type": "Point",
       "coordinates":  [ -105.223364,39.751443 ]
    },
    "properties": {
    "UNITID":126775,
    "Name":"Colorado School of Mines",
    "City":"Golden",
    "State":"CO",
    "Control":"Public",
    "highestDegree":"Doctor's degree - research/scholarship",
    "SAT_AVG":1354,
    "ADM_RATE":0.4035,
    "TUITION_IN":17842,
    "TUITION_OUT":36172
    }
  },
  {
    "type": "Feature",
    "geometry": {
       "type": "Point",
       "coordinates":  [ -97.738273,30.282825 ]
    },
    "properties": {
    "UNITID":228778,
    "Name":"The University of Texas at Austin",
    "City":"Austin",
    "State":"TX",
    "Control":"Public",
    "highestDegree":"Doctor's degree - research/scholarship and professional practice",
    "SAT_AVG":1289,
    "ADM_RATE":0.4037,
    "TUITION_IN":10092,
    "TUITION_OUT":35682
    }
  },
  {
    "type": "Feature",
    "geometry": {
       "type": "Point",
       "coordinates":  [ -86.844214,36.132187 ]
    },
    "properties": {
    "UNITID":219578,
    "Name":"Aquinas College",
    "City":"Nashville",
    "State":"TN",
    "Control":"Private not-for-profit",
    "highestDegree":"Master's degree",
    "SAT_AVG":1143,
    "ADM_RATE":0.4041,
    "TUITION_IN":21950,
    "TUITION_OUT":21950
    }
  },
  {
    "type": "Feature",
    "geometry": {
       "type": "Point",
       "coordinates":  [ -86.355815,41.963859 ]
    },
    "properties": {
    "UNITID":168740,
    "Name":"Andrews University",
    "City":"Berrien Springs",
    "State":"MI",
    "Control":"Private not-for-profit",
    "highestDegree":"Doctor's degree - research/scholarship",
    "SAT_AVG":1127,
    "ADM_RATE":0.4042,
    "TUITION_IN":27684,
    "TUITION_OUT":27684
    }
  },
  {
    "type": "Feature",
    "geometry": {
       "type": "Point",
       "coordinates":  [ -83.14822,34.283641 ]
    },
    "properties": {
    "UNITID":139630,
    "Name":"Emmanuel College",
    "City":"Franklin Springs",
    "State":"GA",
    "Control":"Private not-for-profit",
    "highestDegree":"Bachelor's degree",
    "SAT_AVG":943,
    "ADM_RATE":0.4055,
    "TUITION_IN":19330,
    "TUITION_OUT":19330
    }
  },
  {
    "type": "Feature",
    "geometry": {
       "type": "Point",
       "coordinates":  [ -75.966889,42.087868 ]
    },
    "properties": {
    "UNITID":196079,
    "Name":"SUNY at Binghamton",
    "City":"Vestal",
    "State":"NY",
    "Control":"Public",
    "highestDegree":"Doctor's degree - research/scholarship and professional practice",
    "SAT_AVG":1317,
    "ADM_RATE":0.4062,
    "TUITION_IN":9271,
    "TUITION_OUT":24351
    }
  },
  {
    "type": "Feature",
    "geometry": {
       "type": "Point",
       "coordinates":  [ -75.54053,39.187173 ]
    },
    "properties": {
    "UNITID":130934,
    "Name":"Delaware State University",
    "City":"Dover",
    "State":"DE",
    "Control":"Public",
    "highestDegree":"Doctor's degree - research/scholarship",
    "SAT_AVG":898,
    "ADM_RATE":0.4065,
    "TUITION_IN":7532,
    "TUITION_OUT":16138
    }
  },
  {
    "type": "Feature",
    "geometry": {
       "type": "Point",
       "coordinates":  [ -117.841248,33.648434 ]
    },
    "properties": {
    "UNITID":110653,
    "Name":"University of California-Irvine",
    "City":"Irvine",
    "State":"CA",
    "Control":"Public",
    "highestDegree":"Doctor's degree - research/scholarship and professional practice",
    "SAT_AVG":1206,
    "ADM_RATE":0.4065,
    "TUITION_IN":13360,
    "TUITION_OUT":40042
    }
  },
  {
    "type": "Feature",
    "geometry": {
       "type": "Point",
       "coordinates":  [ -98.482577,29.46286 ]
    },
    "properties": {
    "UNITID":229267,
    "Name":"Trinity University",
    "City":"San Antonio",
    "State":"TX",
    "Control":"Private not-for-profit",
    "highestDegree":"Master's degree",
    "SAT_AVG":1282,
    "ADM_RATE":0.4066,
    "TUITION_IN":39560,
    "TUITION_OUT":39560
    }
  },
  {
    "type": "Feature",
    "geometry": {
       "type": "Point",
       "coordinates":  [ -73.12046,40.91476 ]
    },
    "properties": {
    "UNITID":196097,
    "Name":"Stony Brook University",
    "City":"Stony Brook",
    "State":"NY",
    "Control":"Public",
    "highestDegree":"Doctor's degree - research/scholarship and professional practice",
    "SAT_AVG":1268,
    "ADM_RATE":0.4067,
    "TUITION_IN":8999,
    "TUITION_OUT":26239
    }
  },
  {
    "type": "Feature",
    "geometry": {
       "type": "Point",
       "coordinates":  [ -83.186258,35.308979 ]
    },
    "properties": {
    "UNITID":200004,
    "Name":"Western Carolina University",
    "City":"Cullowhee",
    "State":"NC",
    "Control":"Public",
    "highestDegree":"Doctor's degree - research/scholarship and professional practice",
    "SAT_AVG":1034,
    "ADM_RATE":0.4069,
    "TUITION_IN":6737,
    "TUITION_OUT":17130
    }
  },
  {
    "type": "Feature",
    "geometry": {
       "type": "Point",
       "coordinates":  [ -73.081497,41.535549 ]
    },
    "properties": {
    "UNITID":130183,
    "Name":"Post University",
    "City":"Waterbury",
    "State":"CT",
    "Control":"Private for-profit",
    "highestDegree":"Master's degree",
    "SAT_AVG":893,
    "ADM_RATE":0.4071,
    "TUITION_IN":16510,
    "TUITION_OUT":16510
    }
  },
  {
    "type": "Feature",
    "geometry": {
       "type": "Point",
       "coordinates":  [ -87.218511,30.549076 ]
    },
    "properties": {
    "UNITID":138354,
    "Name":"The University of West Florida",
    "City":"Pensacola",
    "State":"FL",
    "Control":"Public",
    "highestDegree":"Doctor's degree - research/scholarship",
    "SAT_AVG":1070,
    "ADM_RATE":0.4083,
    "TUITION_IN":6360,
    "TUITION_OUT":19241
    }
  },
  {
    "type": "Feature",
    "geometry": {
       "type": "Point",
       "coordinates":  [ -122.190797,37.453475 ]
    },
    "properties": {
    "UNITID":118693,
    "Name":"Menlo College",
    "City":"Atherton",
    "State":"CA",
    "Control":"Private not-for-profit",
    "highestDegree":"Bachelor's degree",
    "SAT_AVG":1010,
    "ADM_RATE":0.4087,
    "TUITION_IN":39950,
    "TUITION_OUT":39950
    }
  },
  {
    "type": "Feature",
    "geometry": {
       "type": "Point",
       "coordinates":  [ -74.012342,40.706677 ]
    },
    "properties": {
    "UNITID":454184,
    "Name":"The King?s College",
    "City":"New York",
    "State":"NY",
    "Control":"Private not-for-profit",
    "highestDegree":"Bachelor's degree",
    "SAT_AVG":1180,
    "ADM_RATE":0.4087,
    "TUITION_IN":34320,
    "TUITION_OUT":34320
    }
  },
  {
    "type": "Feature",
    "geometry": {
       "type": "Point",
       "coordinates":  [ -77.913867,35.734376 ]
    },
    "properties": {
    "UNITID":197911,
    "Name":"Barton College",
    "City":"Wilson",
    "State":"NC",
    "Control":"Private not-for-profit",
    "highestDegree":"Master's degree",
    "SAT_AVG":948,
    "ADM_RATE":0.4088,
    "TUITION_IN":29052,
    "TUITION_OUT":29052
    }
  },
  {
    "type": "Feature",
    "geometry": {
       "type": "Point",
       "coordinates":  [ -73.796313,40.701576 ]
    },
    "properties": {
    "UNITID":190691,
    "Name":"CUNY York College",
    "City":"Jamaica",
    "State":"NY",
    "Control":"Public",
    "highestDegree":"Master's degree",
    "SAT_AVG":885,
    "ADM_RATE":0.4101,
    "TUITION_IN":6748,
    "TUITION_OUT":13858
    }
  },
  {
    "type": "Feature",
    "geometry": {
       "type": "Point",
       "coordinates":  [ -97.63934,35.513314 ]
    },
    "properties": {
    "UNITID":207856,
    "Name":"Southwestern Christian University",
    "City":"Bethany",
    "State":"OK",
    "Control":"Private not-for-profit",
    "highestDegree":"Master's degree",
    "SAT_AVG":904,
    "ADM_RATE":0.4111,
    "TUITION_IN":13080,
    "TUITION_OUT":13080
    }
  },
  {
    "type": "Feature",
    "geometry": {
       "type": "Point",
       "coordinates":  [ -97.279613,32.732962 ]
    },
    "properties": {
    "UNITID":229160,
    "Name":"Texas Wesleyan University",
    "City":"Fort Worth",
    "State":"TX",
    "Control":"Private not-for-profit",
    "highestDegree":"Doctor's degree - research/scholarship and professional practice",
    "SAT_AVG":995,
    "ADM_RATE":0.4116,
    "TUITION_IN":26050,
    "TUITION_OUT":26050
    }
  },
  {
    "type": "Feature",
    "geometry": {
       "type": "Point",
       "coordinates":  [ -76.759721,39.018185 ]
    },
    "properties": {
    "UNITID":162007,
    "Name":"Bowie State University",
    "City":"Bowie",
    "State":"MD",
    "Control":"Public",
    "highestDegree":"Doctor's degree - research/scholarship",
    "SAT_AVG":856,
    "ADM_RATE":0.4126,
    "TUITION_IN":7880,
    "TUITION_OUT":18416
    }
  },
  {
    "type": "Feature",
    "geometry": {
       "type": "Point",
       "coordinates":  [ -87.716441,41.449103 ]
    },
    "properties": {
    "UNITID":145336,
    "Name":"Governors State University",
    "City":"University Park",
    "State":"IL",
    "Control":"Public",
    "highestDegree":"Doctor's degree -  professional practice",
    "SAT_AVG":910,
    "ADM_RATE":0.413,
    "TUITION_IN":10516,
    "TUITION_OUT":18676
    }
  },
  {
    "type": "Feature",
    "geometry": {
       "type": "Point",
       "coordinates":  [ -73.816098,40.735182 ]
    },
    "properties": {
    "UNITID":190664,
    "Name":"CUNY Queens College",
    "City":"Flushing",
    "State":"NY",
    "Control":"Public",
    "highestDegree":"Master's degree",
    "SAT_AVG":1090,
    "ADM_RATE":0.4134,
    "TUITION_IN":6938,
    "TUITION_OUT":14048
    }
  },
  {
    "type": "Feature",
    "geometry": {
       "type": "Point",
       "coordinates":  [ -80.047728,39.158067 ]
    },
    "properties": {
    "UNITID":237118,
    "Name":"Alderson Broaddus College",
    "City":"Philippi",
    "State":"WV",
    "Control":"Private not-for-profit",
    "highestDegree":"Master's degree",
    "SAT_AVG":963,
    "ADM_RATE":0.4138,
    "TUITION_IN":25350,
    "TUITION_OUT":25350
    }
  },
  {
    "type": "Feature",
    "geometry": {
       "type": "Point",
       "coordinates":  [ -83.154109,42.414415 ]
    },
    "properties": {
    "UNITID":170842,
    "Name":"Marygrove College",
    "City":"Detroit",
    "State":"MI",
    "Control":"Private not-for-profit",
    "highestDegree":"Master's degree",
    "SAT_AVG":849,
    "ADM_RATE":0.4142,
    "TUITION_IN":22064,
    "TUITION_OUT":22064
    }
  },
  {
    "type": "Feature",
    "geometry": {
       "type": "Point",
       "coordinates":  [ -84.999552,35.497209 ]
    },
    "properties": {
    "UNITID":219790,
    "Name":"Bryan College-Dayton",
    "City":"Dayton",
    "State":"TN",
    "Control":"Private not-for-profit",
    "highestDegree":"Master's degree",
    "SAT_AVG":1099,
    "ADM_RATE":0.4179,
    "TUITION_IN":24450,
    "TUITION_OUT":24450
    }
  },
  {
    "type": "Feature",
    "geometry": {
       "type": "Point",
       "coordinates":  [ -80.854319,33.498444 ]
    },
    "properties": {
    "UNITID":217873,
    "Name":"Claflin University",
    "City":"Orangeburg",
    "State":"SC",
    "Control":"Private not-for-profit",
    "highestDegree":"Master's degree",
    "SAT_AVG":900,
    "ADM_RATE":0.4182,
    "TUITION_IN":16158,
    "TUITION_OUT":16158
    }
  },
  {
    "type": "Feature",
    "geometry": {
       "type": "Point",
       "coordinates":  [ -87.585278,33.200006 ]
    },
    "properties": {
    "UNITID":102270,
    "Name":"Stillman College",
    "City":"Tuscaloosa",
    "State":"AL",
    "Control":"Private not-for-profit",
    "highestDegree":"Bachelor's degree",
    "SAT_AVG":765,
    "ADM_RATE":0.4192,
    "TUITION_IN":10418,
    "TUITION_OUT":10418
    }
  },
  {
    "type": "Feature",
    "geometry": {
       "type": "Point",
       "coordinates":  [ -92.018683,34.244031 ]
    },
    "properties": {
    "UNITID":106412,
    "Name":"University of Arkansas at Pine Bluff",
    "City":"Pine Bluff",
    "State":"AR",
    "Control":"Public",
    "highestDegree":"Doctor's degree - research/scholarship",
    "SAT_AVG":894,
    "ADM_RATE":0.4193,
    "TUITION_IN":6898,
    "TUITION_OUT":12988
    }
  },
  {
    "type": "Feature",
    "geometry": {
       "type": "Point",
       "coordinates":  [ -83.880186,39.715787 ]
    },
    "properties": {
    "UNITID":201690,
    "Name":"Central State University",
    "City":"Wilberforce",
    "State":"OH",
    "Control":"Public",
    "highestDegree":"Master's degree",
    "SAT_AVG":801,
    "ADM_RATE":0.4201,
    "TUITION_IN":6246,
    "TUITION_OUT":8096
    }
  },
  {
    "type": "Feature",
    "geometry": {
       "type": "Point",
       "coordinates":  [ -75.060808,40.134393 ]
    },
    "properties": {
    "UNITID":210492,
    "Name":"Bryn Athyn College of the New Church",
    "City":"Bryn Athyn",
    "State":"PA",
    "Control":"Private not-for-profit",
    "highestDegree":"Master's degree",
    "SAT_AVG":951,
    "ADM_RATE":0.4214,
    "TUITION_IN":19932,
    "TUITION_OUT":19932
    }
  },
  {
    "type": "Feature",
    "geometry": {
       "type": "Point",
       "coordinates":  [ -121.749567,38.539667 ]
    },
    "properties": {
    "UNITID":110644,
    "Name":"University of California-Davis",
    "City":"Davis",
    "State":"CA",
    "Control":"Public",
    "highestDegree":"Doctor's degree - research/scholarship and professional practice",
    "SAT_AVG":1218,
    "ADM_RATE":0.4228,
    "TUITION_IN":14046,
    "TUITION_OUT":40728
    }
  },
  {
    "type": "Feature",
    "geometry": {
       "type": "Point",
       "coordinates":  [ -97.982669,29.573261 ]
    },
    "properties": {
    "UNITID":228981,
    "Name":"Texas Lutheran University",
    "City":"Seguin",
    "State":"TX",
    "Control":"Private not-for-profit",
    "highestDegree":"Master's degree",
    "SAT_AVG":973,
    "ADM_RATE":0.4261,
    "TUITION_IN":28910,
    "TUITION_OUT":28910
    }
  },
  {
    "type": "Feature",
    "geometry": {
       "type": "Point",
       "coordinates":  [ -74.082188,41.740936 ]
    },
    "properties": {
    "UNITID":196176,
    "Name":"State University of New York at New Paltz",
    "City":"New Paltz",
    "State":"NY",
    "Control":"Public",
    "highestDegree":"Master's degree",
    "SAT_AVG":1115,
    "ADM_RATE":0.4294,
    "TUITION_IN":7754,
    "TUITION_OUT":17604
    }
  },
  {
    "type": "Feature",
    "geometry": {
       "type": "Point",
       "coordinates":  [ -96.947006,32.710017 ]
    },
    "properties": {
    "UNITID":224226,
    "Name":"Dallas Baptist University",
    "City":"Dallas",
    "State":"TX",
    "Control":"Private not-for-profit",
    "highestDegree":"Doctor's degree - research/scholarship",
    "SAT_AVG":1060,
    "ADM_RATE":0.4311,
    "TUITION_IN":26180,
    "TUITION_OUT":26180
    }
  },
  {
    "type": "Feature",
    "geometry": {
       "type": "Point",
       "coordinates":  [ -75.345457,40.039388 ]
    },
    "properties": {
    "UNITID":216597,
    "Name":"Villanova University",
    "City":"Villanova",
    "State":"PA",
    "Control":"Private not-for-profit",
    "highestDegree":"Doctor's degree - research/scholarship and professional practice",
    "SAT_AVG":1350,
    "ADM_RATE":0.435,
    "TUITION_IN":49280,
    "TUITION_OUT":49280
    }
  },
  {
    "type": "Feature",
    "geometry": {
       "type": "Point",
       "coordinates":  [ -73.701955,41.047223 ]
    },
    "properties": {
    "UNITID":196219,
    "Name":"SUNY at Purchase College",
    "City":"Purchase",
    "State":"NY",
    "Control":"Public",
    "highestDegree":"Master's degree",
    "SAT_AVG":1077,
    "ADM_RATE":0.4351,
    "TUITION_IN":8298,
    "TUITION_OUT":18148
    }
  },
  {
    "type": "Feature",
    "geometry": {
       "type": "Point",
       "coordinates":  [ -88.138199,30.694751 ]
    },
    "properties": {
    "UNITID":102234,
    "Name":"Spring Hill College",
    "City":"Mobile",
    "State":"AL",
    "Control":"Private not-for-profit",
    "highestDegree":"Master's degree",
    "SAT_AVG":1121,
    "ADM_RATE":0.4353,
    "TUITION_IN":35794,
    "TUITION_OUT":35794
    }
  },
  {
    "type": "Feature",
    "geometry": {
       "type": "Point",
       "coordinates":  [ -81.599972,27.825751 ]
    },
    "properties": {
    "UNITID":138275,
    "Name":"Warner University",
    "City":"Lake Wales",
    "State":"FL",
    "Control":"Private not-for-profit",
    "highestDegree":"Master's degree",
    "SAT_AVG":888,
    "ADM_RATE":0.4359,
    "TUITION_IN":20712,
    "TUITION_OUT":20712
    }
  },
  {
    "type": "Feature",
    "geometry": {
       "type": "Point",
       "coordinates":  [ -82.523272,40.071505 ]
    },
    "properties": {
    "UNITID":202523,
    "Name":"Denison University",
    "City":"Granville",
    "State":"OH",
    "Control":"Private not-for-profit",
    "highestDegree":"Bachelor's degree",
    "SAT_AVG":1318,
    "ADM_RATE":0.4361,
    "TUITION_IN":48960,
    "TUITION_OUT":48960
    }
  },
  {
    "type": "Feature",
    "geometry": {
       "type": "Point",
       "coordinates":  [ -73.781104,40.899427 ]
    },
    "properties": {
    "UNITID":193645,
    "Name":"The College of New Rochelle",
    "City":"New Rochelle",
    "State":"NY",
    "Control":"Private not-for-profit",
    "highestDegree":"Master's degree",
    "SAT_AVG":937,
    "ADM_RATE":0.4373,
    "TUITION_IN":34960,
    "TUITION_OUT":34960
    }
  },
  {
    "type": "Feature",
    "geometry": {
       "type": "Point",
       "coordinates":  [ -98.667673,36.796658 ]
    },
    "properties": {
    "UNITID":207306,
    "Name":"Northwestern Oklahoma State University",
    "City":"Alva",
    "State":"OK",
    "Control":"Public",
    "highestDegree":"Master's degree",
    "SAT_AVG":970,
    "ADM_RATE":0.4377,
    "TUITION_IN":6690,
    "TUITION_OUT":13538
    }
  },
  {
    "type": "Feature",
    "geometry": {
       "type": "Point",
       "coordinates":  [ -80.283168,35.484696 ]
    },
    "properties": {
    "UNITID":199306,
    "Name":"Pfeiffer University",
    "City":"Misenheimer",
    "State":"NC",
    "Control":"Private not-for-profit",
    "highestDegree":"Master's degree",
    "SAT_AVG":922,
    "ADM_RATE":0.4414,
    "TUITION_IN":28995,
    "TUITION_OUT":28995
    }
  },
  {
    "type": "Feature",
    "geometry": {
       "type": "Point",
       "coordinates":  [ -94.72726,32.467658 ]
    },
    "properties": {
    "UNITID":226231,
    "Name":"LeTourneau University",
    "City":"Longview",
    "State":"TX",
    "Control":"Private not-for-profit",
    "highestDegree":"Master's degree",
    "SAT_AVG":1150,
    "ADM_RATE":0.4419,
    "TUITION_IN":28480,
    "TUITION_OUT":28480
    }
  },
  {
    "type": "Feature",
    "geometry": {
       "type": "Point",
       "coordinates":  [ -73.676646,42.729978 ]
    },
    "properties": {
    "UNITID":194824,
    "Name":"Rensselaer Polytechnic Institute",
    "City":"Troy",
    "State":"NY",
    "Control":"Private not-for-profit",
    "highestDegree":"Doctor's degree - research/scholarship",
    "SAT_AVG":1365,
    "ADM_RATE":0.4435,
    "TUITION_IN":50797,
    "TUITION_OUT":50797
    }
  },
  {
    "type": "Feature",
    "geometry": {
       "type": "Point",
       "coordinates":  [ -93.235464,44.972851 ]
    },
    "properties": {
    "UNITID":174066,
    "Name":"University of Minnesota-Twin Cities",
    "City":"Minneapolis",
    "State":"MN",
    "Control":"Public",
    "highestDegree":"Doctor's degree - research/scholarship and professional practice",
    "SAT_AVG":1288,
    "ADM_RATE":0.4441,
    "TUITION_IN":14142,
    "TUITION_OUT":23806
    }
  },
  {
    "type": "Feature",
    "geometry": {
       "type": "Point",
       "coordinates":  [ -93.182039,44.461529 ]
    },
    "properties": {
    "UNITID":174844,
    "Name":"St Olaf College",
    "City":"Northfield",
    "State":"MN",
    "Control":"Private not-for-profit",
    "highestDegree":"Bachelor's degree",
    "SAT_AVG":1279,
    "ADM_RATE":0.4476,
    "TUITION_IN":44180,
    "TUITION_OUT":44180
    }
  },
  {
    "type": "Feature",
    "geometry": {
       "type": "Point",
       "coordinates":  [ -97.665738,30.634341 ]
    },
    "properties": {
    "UNITID":228343,
    "Name":"Southwestern University",
    "City":"Georgetown",
    "State":"TX",
    "Control":"Private not-for-profit",
    "highestDegree":"Bachelor's degree",
    "SAT_AVG":1165,
    "ADM_RATE":0.4503,
    "TUITION_IN":39060,
    "TUITION_OUT":39060
    }
  },
  {
    "type": "Feature",
    "geometry": {
       "type": "Point",
       "coordinates":  [ -92.713245,32.523797 ]
    },
    "properties": {
    "UNITID":159009,
    "Name":"Grambling State University",
    "City":"Grambling",
    "State":"LA",
    "Control":"Public",
    "highestDegree":"Doctor's degree - research/scholarship",
    "SAT_AVG":874,
    "ADM_RATE":0.4514,
    "TUITION_IN":7371,
    "TUITION_OUT":16394
    }
  },
  {
    "type": "Feature",
    "geometry": {
       "type": "Point",
       "coordinates":  [ -93.240436,44.966307 ]
    },
    "properties": {
    "UNITID":173045,
    "Name":"Augsburg College",
    "City":"Minneapolis",
    "State":"MN",
    "Control":"Private not-for-profit",
    "highestDegree":"Doctor's degree -  professional practice",
    "SAT_AVG":1031,
    "ADM_RATE":0.4514,
    "TUITION_IN":36415,
    "TUITION_OUT":36415
    }
  },
  {
    "type": "Feature",
    "geometry": {
       "type": "Point",
       "coordinates":  [ -73.882705,40.859354 ]
    },
    "properties": {
    "UNITID":191241,
    "Name":"Fordham University",
    "City":"Bronx",
    "State":"NY",
    "Control":"Private not-for-profit",
    "highestDegree":"Doctor's degree - research/scholarship and professional practice",
    "SAT_AVG":1281,
    "ADM_RATE":0.4522,
    "TUITION_IN":49073,
    "TUITION_OUT":49073
    }
  },
  {
    "type": "Feature",
    "geometry": {
       "type": "Point",
       "coordinates":  [ -80.857251,35.243033 ]
    },
    "properties": {
    "UNITID":198756,
    "Name":"Johnson C Smith University",
    "City":"Charlotte",
    "State":"NC",
    "Control":"Private not-for-profit",
    "highestDegree":"Bachelor's degree",
    "SAT_AVG":826,
    "ADM_RATE":0.453,
    "TUITION_IN":18236,
    "TUITION_OUT":18236
    }
  },
  {
    "type": "Feature",
    "geometry": {
       "type": "Point",
       "coordinates":  [ -79.35037,37.740368 ]
    },
    "properties": {
    "UNITID":233611,
    "Name":"Southern Virginia University",
    "City":"Buena Vista",
    "State":"VA",
    "Control":"Private not-for-profit",
    "highestDegree":"Bachelor's degree",
    "SAT_AVG":993,
    "ADM_RATE":0.4532,
    "TUITION_IN":14900,
    "TUITION_OUT":14900
    }
  },
  {
    "type": "Feature",
    "geometry": {
       "type": "Point",
       "coordinates":  [ -122.30514,47.65538 ]
    },
    "properties": {
    "UNITID":236948,
    "Name":"University of Washington-Seattle Campus",
    "City":"Seattle",
    "State":"WA",
    "Control":"Public",
    "highestDegree":"Doctor's degree - research/scholarship and professional practice",
    "SAT_AVG":1266,
    "ADM_RATE":0.4535,
    "TUITION_IN":10753,
    "TUITION_OUT":34791
    }
  },
  {
    "type": "Feature",
    "geometry": {
       "type": "Point",
       "coordinates":  [ -86.21641,32.384181 ]
    },
    "properties": {
    "UNITID":101189,
    "Name":"Faulkner University",
    "City":"Montgomery",
    "State":"AL",
    "Control":"Private not-for-profit",
    "highestDegree":"Doctor's degree -  professional practice",
    "SAT_AVG":972,
    "ADM_RATE":0.4538,
    "TUITION_IN":20130,
    "TUITION_OUT":20130
    }
  },
  {
    "type": "Feature",
    "geometry": {
       "type": "Point",
       "coordinates":  [ -73.948542,40.819846 ]
    },
    "properties": {
    "UNITID":190567,
    "Name":"CUNY City College",
    "City":"New York",
    "State":"NY",
    "Control":"Public",
    "highestDegree":"Doctor's degree - research/scholarship",
    "SAT_AVG":1120,
    "ADM_RATE":0.4539,
    "TUITION_IN":6689,
    "TUITION_OUT":13799
    }
  },
  {
    "type": "Feature",
    "geometry": {
       "type": "Point",
       "coordinates":  [ -97.491107,35.300757 ]
    },
    "properties": {
    "UNITID":207157,
    "Name":"Hillsdale Free Will Baptist College",
    "City":"Moore",
    "State":"OK",
    "Control":"Private not-for-profit",
    "highestDegree":"Master's degree",
    "SAT_AVG":926,
    "ADM_RATE":0.4545,
    "TUITION_IN":13040,
    "TUITION_OUT":13040
    }
  },
  {
    "type": "Feature",
    "geometry": {
       "type": "Point",
       "coordinates":  [ -81.948203,28.032443 ]
    },
    "properties": {
    "UNITID":134079,
    "Name":"Florida Southern College",
    "City":"Lakeland",
    "State":"FL",
    "Control":"Private not-for-profit",
    "highestDegree":"Master's degree",
    "SAT_AVG":1177,
    "ADM_RATE":0.4554,
    "TUITION_IN":33150,
    "TUITION_OUT":33150
    }
  },
  {
    "type": "Feature",
    "geometry": {
       "type": "Point",
       "coordinates":  [ -118.210783,34.126224 ]
    },
    "properties": {
    "UNITID":120254,
    "Name":"Occidental College",
    "City":"Los Angeles",
    "State":"CA",
    "Control":"Private not-for-profit",
    "highestDegree":"Master's degree",
    "SAT_AVG":1315,
    "ADM_RATE":0.4581,
    "TUITION_IN":51070,
    "TUITION_OUT":51070
    }
  },
  {
    "type": "Feature",
    "geometry": {
       "type": "Point",
       "coordinates":  [ -81.918382,28.029733 ]
    },
    "properties": {
    "UNITID":137564,
    "Name":"Southeastern University",
    "City":"Lakeland",
    "State":"FL",
    "Control":"Private not-for-profit",
    "highestDegree":"Master's degree",
    "SAT_AVG":978,
    "ADM_RATE":0.4585,
    "TUITION_IN":24160,
    "TUITION_OUT":24160
    }
  },
  {
    "type": "Feature",
    "geometry": {
       "type": "Point",
       "coordinates":  [ -86.295677,32.364317 ]
    },
    "properties": {
    "UNITID":100724,
    "Name":"Alabama State University",
    "City":"Montgomery",
    "State":"AL",
    "Control":"Public",
    "highestDegree":"Doctor's degree - research/scholarship and professional practice",
    "SAT_AVG":825,
    "ADM_RATE":0.459,
    "TUITION_IN":9220,
    "TUITION_OUT":16156
    }
  },
  {
    "type": "Feature",
    "geometry": {
       "type": "Point",
       "coordinates":  [ -117.500054,33.910704 ]
    },
    "properties": {
    "UNITID":117627,
    "Name":"La Sierra University",
    "City":"Riverside",
    "State":"CA",
    "Control":"Private not-for-profit",
    "highestDegree":"Doctor's degree - research/scholarship",
    "SAT_AVG":906,
    "ADM_RATE":0.4593,
    "TUITION_IN":31590,
    "TUITION_OUT":31590
    }
  },
  {
    "type": "Feature",
    "geometry": {
       "type": "Point",
       "coordinates":  [ -82.347911,29.64629 ]
    },
    "properties": {
    "UNITID":134130,
    "Name":"University of Florida",
    "City":"Gainesville",
    "State":"FL",
    "Control":"Public",
    "highestDegree":"Doctor's degree - research/scholarship and professional practice",
    "SAT_AVG":1287,
    "ADM_RATE":0.4594,
    "TUITION_IN":6381,
    "TUITION_OUT":28659
    }
  },
  {
    "type": "Feature",
    "geometry": {
       "type": "Point",
       "coordinates":  [ -76.217139,36.304673 ]
    },
    "properties": {
    "UNITID":199458,
    "Name":"Mid-Atlantic Christian University",
    "City":"Elizabeth City",
    "State":"NC",
    "Control":"Private not-for-profit",
    "highestDegree":"Bachelor's degree",
    "SAT_AVG":924,
    "ADM_RATE":0.4606,
    "TUITION_IN":13600,
    "TUITION_OUT":13600
    }
  },
  {
    "type": "Feature",
    "geometry": {
       "type": "Point",
       "coordinates":  [ -88.588756,47.127868 ]
    },
    "properties": {
    "UNITID":172440,
    "Name":"Finlandia University",
    "City":"Hancock",
    "State":"MI",
    "Control":"Private not-for-profit",
    "highestDegree":"Bachelor's degree",
    "SAT_AVG":877,
    "ADM_RATE":0.4612,
    "TUITION_IN":22758,
    "TUITION_OUT":22758
    }
  },
  {
    "type": "Feature",
    "geometry": {
       "type": "Point",
       "coordinates":  [ -95.908451,33.243745 ]
    },
    "properties": {
    "UNITID":224554,
    "Name":"Texas A & M University-Commerce",
    "City":"Commerce",
    "State":"TX",
    "Control":"Public",
    "highestDegree":"Doctor's degree - research/scholarship",
    "SAT_AVG":973,
    "ADM_RATE":0.4614,
    "TUITION_IN":7750,
    "TUITION_OUT":19990
    }
  },
  {
    "type": "Feature",
    "geometry": {
       "type": "Point",
       "coordinates":  [ -71.220148,42.388798 ]
    },
    "properties": {
    "UNITID":164739,
    "Name":"Bentley University",
    "City":"Waltham",
    "State":"MA",
    "Control":"Private not-for-profit",
    "highestDegree":"Doctor's degree - research/scholarship",
    "SAT_AVG":1198,
    "ADM_RATE":0.4632,
    "TUITION_IN":45760,
    "TUITION_OUT":45760
    }
  },
  {
    "type": "Feature",
    "geometry": {
       "type": "Point",
       "coordinates":  [ -122.440308,38.570585 ]
    },
    "properties": {
    "UNITID":120865,
    "Name":"Pacific Union College",
    "City":"Angwin",
    "State":"CA",
    "Control":"Private not-for-profit",
    "highestDegree":"Master's degree",
    "SAT_AVG":986,
    "ADM_RATE":0.4655,
    "TUITION_IN":28629,
    "TUITION_OUT":28629
    }
  },
  {
    "type": "Feature",
    "geometry": {
       "type": "Point",
       "coordinates":  [ -90.345151,38.588875 ]
    },
    "properties": {
    "UNITID":179894,
    "Name":"Webster University",
    "City":"Saint Louis",
    "State":"MO",
    "Control":"Private not-for-profit",
    "highestDegree":"Doctor's degree - other",
    "SAT_AVG":1110,
    "ADM_RATE":0.4658,
    "TUITION_IN":26300,
    "TUITION_OUT":26300
    }
  },
  {
    "type": "Feature",
    "geometry": {
       "type": "Point",
       "coordinates":  [ -82.413232,28.061458 ]
    },
    "properties": {
    "UNITID":137351,
    "Name":"University of South Florida-Main Campus",
    "City":"Tampa",
    "State":"FL",
    "Control":"Public",
    "highestDegree":"Doctor's degree - research/scholarship and professional practice",
    "SAT_AVG":1172,
    "ADM_RATE":0.4663,
    "TUITION_IN":6410,
    "TUITION_OUT":17324
    }
  },
  {
    "type": "Feature",
    "geometry": {
       "type": "Point",
       "coordinates":  [ -87.111639,37.769041 ]
    },
    "properties": {
    "UNITID":156356,
    "Name":"Brescia University",
    "City":"Owensboro",
    "State":"KY",
    "Control":"Private not-for-profit",
    "highestDegree":"Master's degree",
    "SAT_AVG":1060,
    "ADM_RATE":0.4677,
    "TUITION_IN":21100,
    "TUITION_OUT":21100
    }
  },
  {
    "type": "Feature",
    "geometry": {
       "type": "Point",
       "coordinates":  [ -83.879987,42.586638 ]
    },
    "properties": {
    "UNITID":169327,
    "Name":"Cleary University",
    "City":"Ann Arbor",
    "State":"MI",
    "Control":"Private not-for-profit",
    "highestDegree":"Master's degree",
    "SAT_AVG":990,
    "ADM_RATE":0.4683,
    "TUITION_IN":17600,
    "TUITION_OUT":17600
    }
  },
  {
    "type": "Feature",
    "geometry": {
       "type": "Point",
       "coordinates":  [ -89.446999,34.776862 ]
    },
    "properties": {
    "UNITID":176318,
    "Name":"Rust College",
    "City":"Holly Springs",
    "State":"MS",
    "Control":"Private not-for-profit",
    "highestDegree":"Bachelor's degree",
    "SAT_AVG":735,
    "ADM_RATE":0.4686,
    "TUITION_IN":9500,
    "TUITION_OUT":9500
    }
  },
  {
    "type": "Feature",
    "geometry": {
       "type": "Point",
       "coordinates":  [ -88.175658,39.479843 ]
    },
    "properties": {
    "UNITID":144892,
    "Name":"Eastern Illinois University",
    "City":"Charleston",
    "State":"IL",
    "Control":"Public",
    "highestDegree":"Master's degree",
    "SAT_AVG":990,
    "ADM_RATE":0.4688,
    "TUITION_IN":11580,
    "TUITION_OUT":13740
    }
  },
  {
    "type": "Feature",
    "geometry": {
       "type": "Point",
       "coordinates":  [ -83.750336,35.937152 ]
    },
    "properties": {
    "UNITID":220473,
    "Name":"Johnson University",
    "City":"Knoxville",
    "State":"TN",
    "Control":"Private not-for-profit",
    "highestDegree":"Doctor's degree - research/scholarship",
    "SAT_AVG":1025,
    "ADM_RATE":0.4703,
    "TUITION_IN":13950,
    "TUITION_OUT":13950
    }
  },
  {
    "type": "Feature",
    "geometry": {
       "type": "Point",
       "coordinates":  [ -80.482751,35.691443 ]
    },
    "properties": {
    "UNITID":198215,
    "Name":"Catawba College",
    "City":"Salisbury",
    "State":"NC",
    "Control":"Private not-for-profit",
    "highestDegree":"Master's degree",
    "SAT_AVG":980,
    "ADM_RATE":0.4707,
    "TUITION_IN":29333,
    "TUITION_OUT":29333
    }
  },
  {
    "type": "Feature",
    "geometry": {
       "type": "Point",
       "coordinates":  [ -83.062352,42.361839 ]
    },
    "properties": {
    "UNITID":169442,
    "Name":"College for Creative Studies",
    "City":"Detroit",
    "State":"MI",
    "Control":"Private not-for-profit",
    "highestDegree":"Master's degree",
    "SAT_AVG":1050,
    "ADM_RATE":0.4737,
    "TUITION_IN":40840,
    "TUITION_OUT":40840
    }
  },
  {
    "type": "Feature",
    "geometry": {
       "type": "Point",
       "coordinates":  [ -78.674517,35.785111 ]
    },
    "properties": {
    "UNITID":199193,
    "Name":"North Carolina State University at Raleigh",
    "City":"Raleigh",
    "State":"NC",
    "Control":"Public",
    "highestDegree":"Doctor's degree - research/scholarship and professional practice",
    "SAT_AVG":1273,
    "ADM_RATE":0.4751,
    "TUITION_IN":8880,
    "TUITION_OUT":26399
    }
  },
  {
    "type": "Feature",
    "geometry": {
       "type": "Point",
       "coordinates":  [ -81.649161,35.057076 ]
    },
    "properties": {
    "UNITID":218238,
    "Name":"Limestone College",
    "City":"Gaffney",
    "State":"SC",
    "Control":"Private not-for-profit",
    "highestDegree":"Master's degree",
    "SAT_AVG":1004,
    "ADM_RATE":0.4765,
    "TUITION_IN":23900,
    "TUITION_OUT":23900
    }
  },
  {
    "type": "Feature",
    "geometry": {
       "type": "Point",
       "coordinates":  [ -78.069388,35.208166 ]
    },
    "properties": {
    "UNITID":199069,
    "Name":"Mount Olive College",
    "City":"Mount Olive",
    "State":"NC",
    "Control":"Private not-for-profit",
    "highestDegree":"Bachelor's degree",
    "SAT_AVG":1005,
    "ADM_RATE":0.4766,
    "TUITION_IN":19000,
    "TUITION_OUT":19000
    }
  },
  {
    "type": "Feature",
    "geometry": {
       "type": "Point",
       "coordinates":  [ -80.483956,35.670877 ]
    },
    "properties": {
    "UNITID":198862,
    "Name":"Livingstone College",
    "City":"Salisbury",
    "State":"NC",
    "Control":"Private not-for-profit",
    "highestDegree":"Bachelor's degree",
    "SAT_AVG":730,
    "ADM_RATE":0.4778,
    "TUITION_IN":17764,
    "TUITION_OUT":17764
    }
  },
  {
    "type": "Feature",
    "geometry": {
       "type": "Point",
       "coordinates":  [ -99.748682,32.429776 ]
    },
    "properties": {
    "UNITID":226587,
    "Name":"McMurry University",
    "City":"Abilene",
    "State":"TX",
    "Control":"Private not-for-profit",
    "highestDegree":"Master's degree",
    "SAT_AVG":938,
    "ADM_RATE":0.4804,
    "TUITION_IN":26275,
    "TUITION_OUT":26275
    }
  },
  {
    "type": "Feature",
    "geometry": {
       "type": "Point",
       "coordinates":  [ -117.772634,34.10086 ]
    },
    "properties": {
    "UNITID":117140,
    "Name":"University of La Verne",
    "City":"La Verne",
    "State":"CA",
    "Control":"Private not-for-profit",
    "highestDegree":"Doctor's degree - research/scholarship and professional practice",
    "SAT_AVG":1040,
    "ADM_RATE":0.4806,
    "TUITION_IN":39900,
    "TUITION_OUT":39900
    }
  },
  {
    "type": "Feature",
    "geometry": {
       "type": "Point",
       "coordinates":  [ -71.065384,42.352202 ]
    },
    "properties": {
    "UNITID":165662,
    "Name":"Emerson College",
    "City":"Boston",
    "State":"MA",
    "Control":"Private not-for-profit",
    "highestDegree":"Master's degree",
    "SAT_AVG":1232,
    "ADM_RATE":0.4806,
    "TUITION_IN":42908,
    "TUITION_OUT":42908
    }
  },
  {
    "type": "Feature",
    "geometry": {
       "type": "Point",
       "coordinates":  [ -76.944721,38.988178 ]
    },
    "properties": {
    "UNITID":163286,
    "Name":"University of Maryland-College Park",
    "City":"College Park",
    "State":"MD",
    "Control":"Public",
    "highestDegree":"Doctor's degree - research/scholarship and professional practice",
    "SAT_AVG":1337,
    "ADM_RATE":0.4806,
    "TUITION_IN":10181,
    "TUITION_OUT":32045
    }
  },
  {
    "type": "Feature",
    "geometry": {
       "type": "Point",
       "coordinates":  [ -117.885446,33.881506 ]
    },
    "properties": {
    "UNITID":110565,
    "Name":"California State University-Fullerton",
    "City":"Fullerton",
    "State":"CA",
    "Control":"Public",
    "highestDegree":"Doctor's degree - other",
    "SAT_AVG":1017,
    "ADM_RATE":0.4823,
    "TUITION_IN":6560,
    "TUITION_OUT":17720
    }
  },
  {
    "type": "Feature",
    "geometry": {
       "type": "Point",
       "coordinates":  [ -118.529319,34.240126 ]
    },
    "properties": {
    "UNITID":110608,
    "Name":"California State University-Northridge",
    "City":"Northridge",
    "State":"CA",
    "Control":"Public",
    "highestDegree":"Doctor's degree - research/scholarship",
    "SAT_AVG":918,
    "ADM_RATE":0.4824,
    "TUITION_IN":6587,
    "TUITION_OUT":17747
    }
  },
  {
    "type": "Feature",
    "geometry": {
       "type": "Point",
       "coordinates":  [ -75.508502,40.596416 ]
    },
    "properties": {
    "UNITID":214175,
    "Name":"Muhlenberg College",
    "City":"Allentown",
    "State":"PA",
    "Control":"Private not-for-profit",
    "highestDegree":"Bachelor's degree",
    "SAT_AVG":1241,
    "ADM_RATE":0.4825,
    "TUITION_IN":48310,
    "TUITION_OUT":48310
    }
  },
  {
    "type": "Feature",
    "geometry": {
       "type": "Point",
       "coordinates":  [ -82.46483,27.948455 ]
    },